FID,Facility Number,Facility Name,HMIS,Province,District,Division,LOCATION,Sub Location,Spatial_Re,Facility Type,Agency,Latitude,Longitude,GlobalID,x,y
1,2,BARGONI HEALTH CENTRE,3606,COAST,LAMU,HINDI,HINDI MAGOGONI,BARGONI,DDP,3,MOH,-2.057423,40.795232,dfbcc6ed-7e0e-4247-831a-195c023f93a9,4541304.45303347,-229080.51701629
2,3,FAZA HEALTH CENTRE,626,COAST,LAMU,FAZA,TCHUNDWA,TCHUNDWA,DDP,3,MOH,-2.071384,41.106066,46b9ba32-bdff-4e0c-a0c0-a549d2c65c81,4575906.3356347,-230635.657769124
3,4,HINDI MAGOGONI DISP,0,COAST,LAMU,HINDI,HINDI MAGOGONI,HINDI MAGOGONI,DANIDA,4,MOH,-2.17357,40.810619,98dc5f1f-331c-4b1b-b978-cd619c44efaf,4543017.3260383,-242018.762241048
4,5,HINDI PRISON DISP,615,COAST,LAMU,HINDI,HINDI MAGOGONI,HINDI MAGOGONI,ILRI VILLAGES,4,MOH,-2.18,40.82,407e09f7-9f8c-41b5-8d22-ff102245c38e,4544061.61418143,-242735.063458576
5,6,HONGWE CATHOLIC HEALTH CENTRE,616,COAST,LAMU,MPEKETONI,HONGWE,HONGWE,SUBLOC CENTROID,3,MISS,-2.341627,40.657674,c9c4b62a-5feb-4606-ac9f-a9cf7081da78,4525991.56651892,-260741.320691745
6,7,ICHUNDWA DISP,625,COAST,LAMU,KIZINGITINI,MBWAJUMWALI,MYABOGI,DDP,4,MOH,-2.080138,41.123971,729c4a36-3229-4164-aeeb-07aad2d4d7df,4577899.51111735,-231610.788466919
7,8,KIUNGA HEALTH CENTRE,627,COAST,LAMU,KIUNGA,KIUNGA,RUBU/MWAMBORE,DDP,3,MOH,-1.741314,41.489472,455009db-c29f-4755-9662-235e49b4e289,4618586.89632178,-193872.035175036
8,9,KIWAYU DISP,618,COAST,LAMU,KIZINGITINI,NDAU,KIWAYUU,DDP,4,MOH,-2.002129,41.276085,bdcfd88f-b82c-4098-9f2a-4e1ec4cc3118,4594832.76413989,-222921.352316861
9,10,KIZINGITINI DISP,617,COAST,LAMU,KIZINGITINI,MBWAJUMWALI,MYABOGI,DANIDA,4,MOH,-2.07302,41.1464,7c5fef7e-63fd-456d-8fbe-c95858788a0f,4580396.29597635,-230817.895629699
10,11,LAKE KENYATTA HEALTH CENTRE,2451,COAST,LAMU,MPEKETONI,MPEKETONI,KIONGWE,HD MAPS,3,MISS,-2.368667,40.716142,fc731b3f-5961-4657-a43d-264285278e5f,4532500.19450662,-263753.944497357
11,12,LAMU DISTRICT HOSPITAL,631,COAST,LAMU,AMU,SHELLA MANDA,SHELLA(LAMU),DANIDA,1,MOH,-2.27857,40.906769,67269d20-efa6-47aa-8972-ef719311b809,4553720.69507807,-253716.137883454
12,13,MANGAI DISP,2508,COAST,LAMU,KIUNGA,BASUBA,MANGAI,ILRI MKT CENTRES,4,MOH,-1.746,41.181,515d3645-4e46-40c9-8404-1844d94653b8,4584247.9503578,-194393.919959695
13,14,MATONDONI DISP,619,COAST,LAMU,AMU,MATONDONI,KIPUNGANI,DISTRICT ESTIMATES,4,MOH,-2.29451,40.858402,8f1f8108-0ce9-4c6d-9a66-37a5703402c1,4548336.50526688,-255491.98450977
14,15,MKOKONI DISP,3786,COAST,LAMU,KIUNGA,KIUNGA,MKOKONI,SUBLOC CENTROID,4,MOH,-1.896091,41.299752,2be2e3c3-4b4c-4c08-9e8b-22c20261895a,4597467.36252849,-211110.421018671
15,16,MKUNUBI DISP,620,COAST,LAMU,MPEKETONI,MKUNUMBI,MKUNUMBI,1:50000 MAPS,4,MOH,-2.29477,40.6761,1b24789a-fdcf-4f7c-b19d-4d1f38d78b03,4528042.73945628,-255520.950804145
16,17,MLANGUMU DISP,0,COAST,LAMU,MPEKETONI,BAHARINI,BAHARI,1:50000 MAPS,4,MOH,-2.42249,40.7218,06424d31-df93-4441-9380-98cf74cea3f8,4533130.04018553,-269750.734514113
17,18,MOA (WEMA) MISSION DISP,2450,COAST,LAMU,WITU,DIDE WARIDE,MOA,ILRI MKT CENTRES,4,MISS,-2.274546,40.315276,5ae97713-60fa-4382-8d14-d5d94f5224fe,4487875.99551029,-253267.834420387
18,19,MOKOWE HEALTH CENTRE,628,COAST,LAMU,HINDI,MOKOWE,KILIMANI,DDP,3,MOH,-2.226905,40.830624,b978b0a0-6409-4eea-a815-b571bbc642e5,4545244.27245162,-247960.367903032
19,20,MPEKETONI HEALTH CENTRE,629,COAST,LAMU,MPEKETONI,MPEKETONI,CENTRAL(LAMU),1:50000 MAPS,3,MOH,-2.38934,40.6976,83c5be0a-541d-4f73-bd0d-53c9901de2ff,4530436.10850834,-266057.237531319
20,21,MUKOWE HOSPITAL,0,COAST,LAMU,HINDI,MOKOWE,MOKOWE,HD MAPS,1,MOH,-2.234325,40.860674,3360c7cc-746a-4020-8ad5-97fa0d1761ea,4548589.42314996,-248786.984884477
21,22,N.Y.S DISP (BARGONI),614,COAST,LAMU,HINDI,HINDI MAGOGONI,BARGONI,DANIDA,4,MOH,-2.01823,40.780399,7afad8ee-d1b5-4271-b2d7-e42fff7d309b,4539653.25102653,-224714.811119213
22,23,NDAU DISP,621,COAST,LAMU,KIZINGITINI,NDAU,NDAU,DANIDA,4,MOH,-2.011428,41.209608,14f24923-9283-444a-a193-95ce83bdf612,4587432.57835042,-223957.147525237
23,24,PANDA NGUO DISP,3787,COAST,LAMU,WITU,WITU,PANDANGUO,SUBLOC CENTROID,4,MOH,-2.203467,40.481233,05bef628-0949-4a50-afd3-a9b6b762918b,4506350.24424387,-245349.310434052
24,25,PATTE DISP,622,COAST,LAMU,FAZA,PATTE,PATTE,DISTRICT ESTIMATES,4,MOH,-2.119562,41.011852,8de9e695-9818-4b94-9bf4-9f66bcdb3cbb,4565418.4811291,-236002.397169202
25,27,SHELLA DISP,623,COAST,LAMU,AMU,SHELLA MANDA,MANDA(LAMU),DISTRICT ESTIMATES,4,MOH,-2.277881,40.949199,ffae1b7e-26b5-40d9-8655-59c8c114b3bf,4558443.98107244,-253639.378081397
26,28,SIYU DISP,624,COAST,LAMU,FAZA,SIYU,SIYU,DISTRICT ESTIMATES,4,MOH,-2.109339,41.08097,f4e7ad2b-ef40-4ad4-a81c-6c2f64931847,4573112.66169375,-234863.602631032
27,29,WITU HEALTH CENTRE,630,COAST,LAMU,WITU,WITU,WITU,DDP,3,MOH,-2.39067,40.435958,ac09a430-2997-4a06-aef5-c3ddb2d4a2c3,4501310.2542982,-266205.421356234
28,36,ADC GALANA RANCH DISP,3301,COAST,MALINDI,MALINDI,CHAKAMA,KISIKI CHA WANGIRIAM,DSA/DFH(MOH)-UNFPA REPORT,4,MISS,-3.065975,39.477797,0da39336-48db-4315-a760-a1f4fa0dce97,4394648.25968023,-341465.777272526
29,1,ADU DISP,512,COAST,MALINDI,MARAFA,ADU,ADU,DANIDA,4,MOH,-2.8398,39.979912,450c3800-b195-41d4-96b1-2c75f6497034,4450543.4457999,-316254.600397551
30,2,AIC MALANGA DISP,4657,COAST,MALINDI,MALINDI,LANGOBAYA,MALANGA(MALINDI),AMKENI,4,MISS,-3.247002,39.791723,9aa5a823-bae1-4ddd-870d-7055e4e6930c,4429594.342147,-361648.238619666
31,3,BARICHO DISP,516,COAST,MALINDI,MARAFA,BUNGALE,BARICHO(MALINDI),DANIDA,4,MOH,-3.10371,39.784611,87f43d66-ac94-4601-b26c-c4a5ed94b508,4428802.63792847,-345672.514140349
32,4,CHAKAMA DISP,518,COAST,MALINDI,MALINDI,CHAKAMA,MAKONGENI(MALINDI),DANIDA,4,MOH,-3.122,39.633499,7a370eac-a916-4d55-bf84-2da724d103ce,4411980.92703572,-347711.556217852
33,5,DAGAMRA DISP,521,COAST,MALINDI,MARAFA,DAGAMRA,BATE,DANIDA,4,MOH,-3.18239,39.936409,2d11bb76-b2a7-4951-918f-8a4c85534c7e,4445700.71399191,-354444.327319304
34,0,FUNDISA DISP,2937,COAST,MALINDI,MAGARINI,FUNDISA,FUNDISA,DHMT,4,MOH,-2.917646,40.093725,ec4647df-ed44-421e-a2f2-d070c26ee6ee,4463213.05100555,-324931.327516239
35,6,GALANA HOSPITAL,564,COAST,MALINDI,MALINDI,MALINDI,SABAKI,AMKENI,1,MISS,-3.197483,40.116335,7cf5a758-8c00-4304-9f2d-1aa70e54e6f4,4465729.98469238,-356127.079733851
36,7,GARASHI DISP,526,COAST,MALINDI,MARAFA,GARASHI,MIKUYUNI(MALINDI),DANIDA,4,MOH,-3.13094,39.891178,914d817c-097d-4f8a-913d-4c7d1f9afe44,4440665.62210384,-348708.235944629
37,8,GEDE DISP,527,COAST,MALINDI,MALINDI,WATAMU,CHEMBE KIBABA MUCHE,DANIDA,4,MOH,-3.284649,40.050652,1cb89a4d-c66b-4315-a9d5-3c6e0b179a86,4458418.18657861,-365845.90067976
38,9,GONGONI DISP,530,COAST,MALINDI,MAGARINI,GONGONI,GONGONI,DANIDA,4,MOH,-3.03614,40.133381,ffbc3af4-0bb6-4c92-bd1a-874f701f4b63,4467627.53673245,-338139.84572086
39,10,JILORE HEALTH CENTRE,533,COAST,MALINDI,MALINDI,JILORE,JILORE/ZIAN,DANIDA,3,MOH,-3.18922,39.905842,7c470610-ad3b-481f-94de-0f14fbddf76e,4442298.01111684,-355205.816274866
40,11,KAKONENI DISP,535,COAST,MALINDI,MALINDI,JILORE,KAKONENI,DANIDA,4,MOH,-3.16443,39.86591,f1d352ad-86fd-48c4-8f0d-4550a4cfdf28,4437852.80121048,-352441.958749319
41,12,KAKUYUNI DISP,536,COAST,MALINDI,MALINDI,GOSHI,KAKUYUNI(MALINDI),DANIDA,4,MOH,-3.22065,40.001911,affdd16c-3936-4663-b515-e69d5e73ac37,4452992.36327786,-358710.068732075
42,14,MALANGA SDA DISPENSARY,0,COAST,MALINDI,MALINDI,LANGOBAYA,MALANGA(MALINDI),AMKENI,4,MISS,-3.257113,39.792298,85c68fee-c10a-45e8-9645-321d155429a6,4429658.35085421,-362775.605465709
43,15,MALINDI DISTRICT HOSPITAL,566,COAST,MALINDI,MALINDI,MALINDI,BARANI,KEMRI-KILIFI PROJECT,1,MOH,-3.2165,40.1182,e8d9c1df-8423-4e15-b7ec-31ee30eb8a28,4465937.59554271,-358247.36297991
44,16,MAMBRUI DISP,542,COAST,MALINDI,MAGARINI,MAGARINI,MAMBRUI,DANIDA,4,MOH,-3.11815,40.136879,8e887fe0-a1fc-4930-8b9b-bf0426ad96ad,4468016.93231124,-347282.339934257
45,17,MARAFA HEALTH CENTRE (MAGARINI),561,COAST,MALINDI,MARAFA,MARAFA,MADINA,DANIDA,3,MOH,-3.02833,39.959728,7f36b696-9bc6-4631-9e1a-faa117378e12,4448296.57319772,-337269.221564188
46,18,MARERENI DISP,3765,COAST,MALINDI,MAGARINI,FUNDISA,MARERENI,DANIDA,4,MOH,-2.863,40.144611,5faa757d-cee3-4c52-b7ac-0dad8d20af56,4468877.65461405,-318840.414065668
47,19,MARIKEBUNI DISP,543,COAST,MALINDI,MAGARINI,MAGARINI,MARIKEBUNI,DANIDA,4,MOH,-3.09027,40.112049,9dd96781-6b6f-4034-8a27-f1dd253eff12,4465252.86935485,-344174.191895903
48,20,MERE SDA DISP,0,COAST,MALINDI,MALINDI,GOSHI,MALIMO,AMKENI,4,MISS,-3.195264,40.031232,a23bc3bb-7127-4460-adc4-283719675fd2,4456256.3620674,-355879.676898025
49,21,MIDZIJINI DISP,3766,COAST,MALINDI,MARAFA,ADU,RAMADA,SUBLOC CENTROID,4,MISS,-2.702209,40.037835,55247afc-34e9-41fa-8201-e3fbec206cf5,4456991.40466511,-300920.106489217
50,22,MUNICIPAL HEALTH CENTRE,4350,COAST,MALINDI,MALINDI,MALINDI,SHELLA(MALINDI),AMKENI,3,LA,-3.232732,40.114903,ebc5cb2a-40e5-45af-a219-1252ad64fd83,4465570.57518157,-360057.1664415
51,0,NEEMA MEDICAL DISP,0,COAST,MALINDI,MAGARINI,FUNDISA,FUNDISA,DHMT,4,MISS,-2.963256,40.140365,f82da1fc-cb26-4e48-be00-ef684178a2c4,4468404.99205614,-330015.303241849
52,23,NGOMENI DISP,549,COAST,MALINDI,MAGARINI,GONGONI,NGOMENI,DANIDA,4,MOH,-3.01,40.18,6cfab590-ba99-4382-a47f-574b42ff36d9,4472817.14007374,-335225.899102272
53,25,SOSONI DISP,553,COAST,MALINDI,MARAFA,BUNGALE,DAKACHA,DANIDA,4,MOH,-3.02801,39.822899,b155880c-2004-490f-a4d2-7d602e10e3dd,4433064.83859197,-337233.549517635
54,26,TAWFIQ MUSLIM HOSPITAL,2940,COAST,MALINDI,MALINDI,MALINDI,SHELLA(MALINDI),AMKENI,1,MISS,-3.220937,40.112698,7bac8645-8196-49e5-8503-2ad375801186,4465325.11570437,-358742.067970646
55,27,TAWHEED MUSLIM DISP,0,COAST,MALINDI,MALINDI,MALINDI,BARANI,AMKENI,4,MISS,-3.216853,40.114882,4b83e683-6a77-4494-b388-facc01a2f4cf,4465568.23747226,-358286.720769362
56,28,WATAMU SDA DISP,2917,COAST,MALINDI,MALINDI,WATAMU,WATAMU,PSI,4,MISS,-3.35175,40.01693,a95e9fb9-3060-4a89-9905-354a86c55400,4454664.27071008,-373328.094296917
57,1,ALMS HOUSE DISP,643,COAST,MOMBASA,ISLAND,TONONOKA,TONONOKA,DSA/DFH(MOH)-UNFPA REPORT,4,LA,-4.041251,39.663987,cf968f62-467b-4c65-b054-92081e50b867,4415374.83567103,-450243.47954196
58,3,ANNEXE DISP,4517,COAST,MOMBASA,KISAUNI,KISAUNI,KISAUNI,DSA/DFH(MOH)-UNFPA REPORT,4,MOH,-4.005339,39.714984,766d4ff2-33da-4825-b94b-e79bb127aa9e,4421051.79574302,-446235.897664219
59,5,BAMBURI DISP,644,COAST,MOMBASA,KISAUNI,BAMBURI,BAMBURI,SUBLOC CENTROID,4,LA,-3.973318,39.707035,1538c815-f889-4e62-a279-ee81fc80d81e,4420166.9171107,-442662.678382758
60,6,CHAANI DISP,645,COAST,MOMBASA,CHANGAMWE,CHANGAMWE,CHANGAMWE,SUBLOC CENTROID,4,LA,-4.016913,39.61943,37536dc3-a316-4f66-9d0a-55ca3e542323,4410414.77311976,-447527.473185494
61,7,COAST PROVINCIAL GENERAL HOSP.,696,COAST,MOMBASA,ISLAND,OLD TOWN,OLD T.(MAKADARA WARD,HD MAPS,2,MOH,-4.059355,39.677362,a77c7109-7a57-495f-a373-c3f1ecd1298a,4416863.73386039,-452263.853651853
62,8,CRESCENT MEDICAL AID DISP,3303,COAST,MOMBASA,LIKONI,LIKONI,TIMBWANI,AMKENI,4,MISS,-4.100958,39.644637,7dc40be0-f6f3-4604-8a19-1c4e77e2a19f,4413220.80352418,-456906.846263893
63,11,ELIZA MEDICAL RENT DISP,4530,COAST,MOMBASA,ISLAND,MAJENGO,MWEMBE TAYARI,ILRI MKT CENTRES,4,MISS,-4.056412,39.665141,abd81d1f-a386-41c7-b78b-f706bb3349b1,4415503.29836341,-451935.417022513
64,12,GANJONI (CDC) DISP,648,COAST,MOMBASA,ISLAND,GANJONI,GANJONI,SUBLOC CENTROID,4,LA,-4.065307,39.658767,2f359614-888d-4428-951d-afb920b088cc,4414793.74792909,-452928.096121931
65,13,HOLY GHOST CATHEDRAL DISP,3307,COAST,MOMBASA,ISLAND,GANJONI,KIZINGO(MOMBASA),DSA/DFH(MOH)-UNFPA REPORT,4,MISS,-4.064671,39.680918,231e5ba5-cf79-452f-9fea-0a5a49a1836a,4417259.58596965,-452857.118366035
66,17,JOMVU KUU HEALTH CENTRE,685,COAST,MOMBASA,CHANGAMWE,MIRITINI,JOMVU KUU,DSA/DFH(MOH)-UNFPA REPORT,3,LA,-3.987726,39.598962,9f9f5333-ac04-4cfc-bed4-f284fd8f28ee,4408136.28578219,-444270.448022315
67,18,JOMVU REFUGEE CAMP,0,COAST,MOMBASA,CHANGAMWE,MIRITINI,JOMVU KUU,DSA/DFH(MOH)-UNFPA REPORT,4,NGO,-3.990976,39.596276,69b24a97-c116-4a7c-9598-95b6e83a89fa,4407837.28162992,-444633.115110529
68,19,KILINDINI PORT DISP,651,COAST,MOMBASA,LIKONI,LIKONI,BOFU(MOMBASA),ILRI VILLAGES,4,MOH,-4.08,39.65,e50f5e9d-ea07-4c1a-9dfc-96d230e14bd2,4413817.8099533,-454567.854131309
69,20,KISAUNI DISP,653,COAST,MOMBASA,KISAUNI,KONGOWEA,MAWENI,ILRI MKT CENTRES,4,MOH,-4.030596,39.692579,1f5bc991-9fac-4e5e-95ff-76dae1c1489a,4418557.68255179,-449054.421642598
70,21,KONGOWEA HEALTH CENTRE,683,COAST,MOMBASA,KISAUNI,KONGOWEA,KONGOWEA,AMKENI,3,MOH,-4.041348,39.684077,97d0d67f-a9e8-4206-891a-8b2d4bfa61a7,4417611.24424107,-450254.304448594
71,22,KONGOWEA MED DISP,4523,COAST,MOMBASA,KISAUNI,KONGOWEA,KONGOWEA,ILRI MKT CENTRES,4,MISS,-4.039701,39.68,ed2a3cf2-1d7a-4e60-9b04-9baa8422a212,4417157.3946771,-450070.504405441
72,23,KWA JOMVU HEALTH CENTRE,684,COAST,MOMBASA,CHANGAMWE,PORT REITZ,PORT REITZ,ILRI VILLAGES,3,LA,-4.04,39.6,54d1d2c1-8b78-4aef-9cca-d36ffd1cb1a1,4408251.83541364,-450103.871841529
73,24,LIKONI HEALTH CENTRE,687,COAST,MOMBASA,LIKONI,LIKONI,TIMBWANI,AMKENI,3,MOH,-4.085214,39.655484,edee98ae-5cc1-4444-98db-f5f22ad8f9aa,4414428.28604081,-455149.750552953
74,25,LIKONI MISSION DISP,655,COAST,MOMBASA,LIKONI,SHIKA ADABU,VIJIWENI,DSA/DFH(MOH)-UNFPA REPORT,4,MISS,-4.111836,39.644641,5bd4798a-86c4-4183-91b9-e31e7c089bbf,4413221.24880214,-458120.89640324
75,27,MAGONGO HEALTH CENTRE,688,COAST,MOMBASA,CHANGAMWE,KIPEVU,KIPEVU,ILRI VILLAGES,3,LA,-4.0352,39.63,43ce65c2-c812-4d36-a108-f7d4bc689b95,4411591.42013744,-449568.208801078
76,28,MAJENGO DISP,689,COAST,MOMBASA,ISLAND,TUDOR,TUDOR FOUR,1:50000 MAPS,4,LA,-4.031532,39.66667,c4429b08-296d-4262-8b10-6e5ea6bab58f,4415673.50586483,-449158.875095068
77,29,MAJENGO MCH/FP CLINIC,0,COAST,MOMBASA,ISLAND,MAJENGO,MAJENGO(MOMBASA),DSA/DFH(MOH)-UNFPA REPORT,4,NGO,-4.058393,39.663509,6c99ec84-c1ea-4baa-b8c9-6402a62b134e,4415321.62495443,-452156.495029725
78,30,MAKUPA HEALTH CENTRE,690,COAST,MOMBASA,ISLAND,TUDOR,TUDOR,1:50000 MAPS,3,LA,-4.03153,39.655225,fa689a33-0a2e-415a-9956-d85da1c8c348,4414399.4542927,-449158.651903803
79,31,MAKUPA MCH/FP CLINIC,0,COAST,MOMBASA,ISLAND,MAJENGO,MAJENGO(MOMBASA),DSA/DFH(MOH)-UNFPA REPORT,4,NGO,-4.045181,39.660636,8992910b-733f-4855-bc96-28709b57e3aa,4415001.80405738,-450682.056692784
80,35,MIKINDANI MISSION DISP,660,COAST,MOMBASA,CHANGAMWE,MIKINDANI,BIRIKANI,DSA/DFH(MOH)-UNFPA REPORT,4,MISS,-4.029325,39.648458,1789c75c-97e8-4963-a270-a709a7dca9b2,4413646.1552985,-448912.583867044
81,36,MIRITINI DISP,4508,COAST,MOMBASA,CHANGAMWE,MIRITINI,MIRITINI,SUBLOC CENTROID,4,LA,-4.010761,39.58529,0c9fd39c-6cb2-4b75-b50c-f809730b3148,4406614.32570407,-446840.951760819
82,37,MKOMANI HARAMBEE DISP,661,COAST,MOMBASA,ISLAND,GANJONI,KIZINGO(MOMBASA),DSA/DFH(MOH)-UNFPA REPORT,4,NGO,-4.063657,39.674068,f3d793e5-d3a3-401a-a2b8-aaa9ec47cd4b,4416497.04745771,-452743.955833268
83,39,MOW SHIMANZI DISP,656,COAST,MOMBASA,ISLAND,RAILWAY,SHIMANZI,SUBLOC CENTROID,4,LA,-4.045337,39.651523,017ee840-ded3-4714-8013-de78f10ee946,4413987.34953778,-450699.465906016
84,40,MTONGWE DISP,3959,COAST,MOMBASA,LIKONI,MTONGWE,MTONGWE,DSA/DFH(MOH)-UNFPA REPORT,4,MISS,-4.068683,39.641934,1da47115-ea20-4b47-9e25-82aa1cd82e93,4412919.90694056,-453304.859487186
85,41,MTONGWE HEALTH CENTRE,692,COAST,MOMBASA,LIKONI,MTONGWE,MTONGWE,AMKENI,3,MOH,-4.081243,39.639063,b1ee0092-fefb-4452-80db-4dd4f6694e70,4412600.3086825,-454706.575930945
86,44,MVITA DISP (MOMBASA),638,COAST,MOMBASA,ISLAND,TONONOKA,BONDENI(MOMBASA),ILRI VILLAGES,4,LA,-4.05,39.67,675556d0-3a59-4229-937a-5b132a468fee,4416044.19976917,-451219.846693362
87,45,MWAKIRUGE DISP,663,COAST,MOMBASA,KISAUNI,BAMBURI,MWAKIRUNGE,DSA/DFH(MOH)-UNFPA REPORT,4,LA,-3.960939,39.685962,87de3701-1dcb-47a0-9fa2-36f67193cbfb,4417821.08148121,-441281.344598596
88,46,MWEMBE TAYARI SUB HEALTH CENTRE,664,COAST,MOMBASA,ISLAND,GANJONI,KIZINGO(MOMBASA),DDP,3,LA,-4.064651,39.672694,00a5ad5c-c7ec-4b73-944f-07eefee6acf6,4416344.09447736,-452854.88636204
89,47,NGOMEN DISP,2370,COAST,MOMBASA,ISLAND,MAJENGO,MWEMBE TAYARI,ILRI VILLAGES,4,MOH,-4.06,39.67,26dca1b9-de61-4964-a7e4-fe8a09ce9b40,4416044.19976917,-452335.835336046
90,48,OLD TOWN KADER BHOY DISP,667,COAST,MOMBASA,ISLAND,OLD TOWN,OLD T.(MAKADARA WARD,SUBLOC CENTROID,4,LA,-4.05783,39.674455,0ac48929-525f-4157-936f-b8f09a20e1e9,4416540.12810066,-452093.664627244
91,49,PORT REITZ DISTRICT HOSPITAL,700,COAST,MOMBASA,CHANGAMWE,PORT REITZ,PORT REITZ,AMKENI,1,MOH,-4.039267,39.602867,ad0c070f-3f2b-4412-8641-286728d9cb1f,4408570.98839374,-450022.071426436
92,52,SHANZU HADIEK COLLEGE DISP,672,COAST,MOMBASA,KISAUNI,BAMBURI,SHANZU,SUBLOC CENTROID,4,LA,-3.976707,39.743165,4c280301-4a76-4b63-b013-cad620ead655,4424188.89031306,-443040.849875088
93,53,SHIKA ADABU DISP,674,COAST,MOMBASA,LIKONI,SHIKA ADABU,VIJIWENI,AMKENI,4,MOH,-4.11276,39.637669,bc53868a-3eff-4cd5-b786-ca13ea4f6ff3,4412445.12931233,-458224.021116214
94,54,SHIMO LA TEWA DISP,675,COAST,MOMBASA,KISAUNI,BAMBURI,SHANZU,DDP,4,MOH,-3.956292,39.742418,9cf98567-fb6f-49bf-bf2a-4a0536c800cb,4424105.73465343,-440762.805781784
95,55,STATE HOUSE DISP,676,COAST,MOMBASA,ISLAND,GANJONI,KIZINGO(MOMBASA),DSA/DFH(MOH)-UNFPA REPORT,4,MOH,-4.071958,39.667547,82162ee7-e5a9-4307-a518-30993d70cc67,4415771.13305825,-453670.352708564
96,56,STELLA MARIE DISP,677,COAST,MOMBASA,LIKONI,SHIKA ADABU,VIJIWENI,DSA/DFH(MOH)-UNFPA REPORT,4,MISS,-4.117456,39.65792,2ecc51ac-cb2a-4fee-822b-9510fa809031,4414699.46032039,-458748.128649113
97,57,TIMBWANI CONSOLATA SISTERS DISPENSARY,3956,COAST,MOMBASA,LIKONI,LIKONI,TIMBWANI,SUBLOC CENTROID,4,MISS,-4.094899,39.657845,db10556e-8eb7-4383-83d3-e11c227d12d6,4414691.11135858,-456230.63263895
98,58,TUDOR HEALTH CENTRE,678,COAST,MOMBASA,ISLAND,TUDOR,TUDOR,DDP,3,MOH,-4.029273,39.661421,af08335e-1caa-448f-be67-09a3b0e45042,4415089.18985766,-448906.780910052
99,59,UKUMBUSHO CPK HOSP,702,COAST,MOMBASA,ISLAND,GANJONI,KIZINGO(MOMBASA),DSA/DFH(MOH)-UNFPA REPORT,1,MISS,-4.068035,39.68143,b610e962-7f9b-4a54-9898-350765c9ec7d,4417316.58154893,-453232.542225938
100,60,UTANGE DISP,679,COAST,MOMBASA,KISAUNI,BAMBURI,MWEMBE LEGEZA,ILRI VILLAGES,4,LA,-3.97,39.72,33b0b171-5f6f-4ca1-a6d3-998dce291945,4421610.17430883,-442292.431138629
101,1,ANMER DISP,190,CENTRAL,KIAMBU,KIAMBAA,KAMITI,ANMER,1:50000 MAPS,4,MOH,-1.137387,36.84009,ca8fb86c-0e17-4b41-9019-5c22f41199b4,4101020.05957837,-126621.658206908
102,2,BATHI DISP,192,CENTRAL,KIAMBU,LARI,KIJABE,BATHI,DDP,4,MISS,-0.978523,36.6347,0f043367-ab11-4f55-897f-07609eb61a9f,4078156.14936435,-108933.97774201
103,3,BIBIRIONI DISP,3731,CENTRAL,KIAMBU,LIMURU,LIMURU,BIBIRIONI,1:50000 MAPS,4,MISS,-1.08108,36.6171,67985ec6-c765-4b55-b15d-ae850c18d4a3,4076196.92632638,-120352.416564204
104,4,CHURA DISP,0,CENTRAL,KIAMBU,KIKUYU,KABETE,CHURA,1:50000 MAPS,4,MOH,-1.21635,36.6896,2ce63c72-f7c9-479a-80d7-c5d686eff30b,4084267.58940889,-135413.63446148
105,5,CIANDA DISP,193,CENTRAL,KIAMBU,KIAMBAA,CIANDA,CIANDA,1:50000 MAPS,4,MOH,-1.1328,36.7613,403100ac-dd1d-433d-9f14-0c2fbf73e3a4,4092249.19689877,-126110.935481448
106,6,GACHOIRE DISP,0,CENTRAL,KIAMBU,LARI,NYANDUMA,GACHOIRE,DDP,4,MOH,-0.991187,36.7044,dc3d958c-7151-4fd1-87d8-32bbdf35e5c2,4085915.11787264,-110343.936064607
107,7,GATHANGA DISP,931,CENTRAL,KIAMBU,KIAMBAA,WAGUTHU,GATHANGA,1:50000 MAPS,4,MOH,-1.182312,36.791234,faff94f9-3ebe-42c4-a99d-aa46adc30169,4095581.43453618,-131623.711311801
108,8,GATHANGARI DISP,0,CENTRAL,KIAMBU,GITHUNGURI,GITHIGA,GITIHA,1:50000 MAPS,4,MOH,-1.06802,36.7054,d8d70b02-b4d6-4c98-a836-f28647eb4a41,4086026.43736343,-118898.328296392
109,9,GIATHIEKO DISP,0,CENTRAL,KIAMBU,GITHUNGURI,IKINU,RIUKI,DDP,4,MOH,-1.09883,36.8279,3dc7bf1f-c0f1-462d-9173-17d3f2748b7e,4099663.07498561,-122328.695116755
110,10,GICHARANI DISP,3638,CENTRAL,KIAMBU,KIKUYU,KARAI,GIKAMBURA,ILRI VILLAGES,4,MISS,-1.27,36.65,2b0d89c5-fc24-4016-9e60-e1b8d0465d14,4079859.33757348,-141387.331458394
111,11,GICHURU DISP,198,CENTRAL,KIAMBU,LIMURU,NGECHA,NGECHA,1:50000 MAPS,4,MOH,-1.16126,36.6689,40dcd8ab-da22-4e67-b4c3-a15ea29cfbc8,4081963.27594948,-129279.723191621
112,12,GITHIGA HEALTH CENTRE,2401,CENTRAL,KIAMBU,GITHUNGURI,GITHIGA,MATUGUTA,DDP,3,MOH,-1.083,36.7462,ba9ba8a2-c085-4e21-ad14-00ddaae87e94,4090568.27258779,-120566.188106144
113,13,GITHUNGURI HEALTH CENTRE,233,CENTRAL,KIAMBU,GITHUNGURI,GITHUNGURI,KANJAI,DDP,3,MOH,-1.05339,36.788,5861566c-e683-4a55-b994-f462f2322dd6,4095221.42730296,-117269.445021295
114,14,GITIHA HEALTH CENTRE,2398,CENTRAL,KIAMBU,GITHUNGURI,GITHIGA,GITIHA,1:50000 MAPS,3,MOH,-1.0742,36.6896,ea0eb5c0-0d0b-4838-8e25-d314d46dc07d,4084267.58940889,-119586.402980655
115,15,HOLY CROSS (THIGIO) DISP,612,CENTRAL,KIAMBU,LIMURU,NDEIYA,THIGIO(KIAMBU),SUBLOC CENTROID,4,MISS,-1.196205,36.56731,fb9c14a5-b67e-4dec-82fd-dab1b29d0d98,4070654.32887979,-133170.606214602
116,16,KAARIA DISP,0,CENTRAL,KIAMBU,KIAMBAA,NDUMBERI,NDUMBERI,1:50000 MAPS,4,MOH,-1.14234,36.801234,dd5e65eb-d00d-4950-b518-aef55d0204c4,4096694.62944411,-127173.132774337
117,17,KAGAA HEALTH CENTRE,2400,CENTRAL,KIAMBU,GITHUNGURI,GITHUNGURI,GITHUNGURI(KIAMBU),DDP,3,MOH,-1.05093,36.7467,8dfca152-438e-4d17-8ca0-42f0691a304a,4090623.93233319,-116995.552893734
118,18,KAGWE CATHOLIC MISSION DISP,207,CENTRAL,KIAMBU,LARI,GATAMAIYU,KAGWE,ILRI MKT CENTRES,4,MISS,-1.001209,36.743433,bbe0f359-0fb4-44ba-b3cd-0e8a46370848,4090260.25155677,-111459.748656659
119,19,KAGWE HEALTH CENTRE,2447,CENTRAL,KIAMBU,LARI,GATAMAIYU,KAGWE,DDP,3,MOH,-1.00448,36.7392,c04423d1-dfd5-49db-96c6-9c7345702227,4089789.03615224,-111823.930493739
120,20,KAMAE FOREST DISP,208,CENTRAL,KIAMBU,LARI,KINALE,KINALE,DDP,4,MOH,-0.870245,36.624,7e83c874-4694-4ea3-a852-f743572f94cd,4076965.03081285,-96878.9552488971
121,21,KAMBUI DISP,209,CENTRAL,KIAMBU,GITHUNGURI,NGEWA,NYAGA,ILRI VILLAGES,4,MISS,-1.1,36.87,feca2437-270e-4be6-8a56-796555cde20f,4104349.625548,-122458.962902233
122,22,KAMBURU DISP,4831,CENTRAL,KIAMBU,LARI,KAMBURU,MATIMBEI,DDP,4,MOH,-1.01588,36.7082,56ae0260-bc88-4668-ab8b-286504cead15,4086338.13193765,-113093.169957944
123,23,KARAI HEALTH CENTRE,0,CENTRAL,KIAMBU,KIKUYU,KARAI,NACHU,DDP,3,MOH,-1.28069,36.5765,f5cf6b67-717b-4aec-8248-4185c844946b,4071677.35500018,-142577.631678625
124,24,KARIA DISP,210,CENTRAL,KIAMBU,KIAMBAA,WAGUTHU,NGEGU,1:50000 MAPS,4,MOH,-1.174213,36.82123,a4985f1d-952c-440c-9804-da6dbf24da42,4098920.57398202,-130721.944082642
125,25,KARURA SDA DISP,0,CENTRAL,KIAMBU,KIAMBAA,KIHARA,GACHIE,ILRI VILLAGES,4,MISS,-1.22,36.78,4aa55e43-5f01-4485-a3ef-596ad6e333b5,4094330.8713766,-135820.042455233
126,26,KARURI HEALTH CENTRE,261,CENTRAL,KIAMBU,KIAMBAA,KIAMBAA,NJIKU,DDP,3,MOH,-1.18431,36.7399,75bb8b25-34e9-4c14-ae0c-4430dc6e7d73,4089866.9597958,-131846.175096787
127,27,KENTMERE DISP,2413,CENTRAL,KIAMBU,LIMURU,KARAMBAINI,MABROUKE,1:50000 MAPS,4,MISS,-1.122966,36.658545,b717f9de-dbce-45b8-a21b-0696fa453318,4080810.56262231,-125016.007466753
128,28,KIAMBAA DISP,0,CENTRAL,KIAMBU,KIAMBAA,KAMITI,ANMER,DDP,4,MOH,-1.13999,36.8456,fcd2df0e-7717-4380-a72c-ed656491acb6,4101633.42997265,-126911.480075124
129,29,KIAMBU DISTRICT HOSPITAL,251,CENTRAL,KIAMBU,KIAMBAA,KIAMBAA S/AREA,TOWNSHIP(KIAMBAA),GPS,1,MOH,-1.16938,36.82993,37f2a094-2a18-4045-a0c0-14cbf75c791e,4099889.05355192,-130183.824447124
130,30,KIAWAROGA DISP,326,CENTRAL,KIAMBU,LIMURU,KARAMBAINI,KIAWAROGA,1:50000 MAPS,4,MOH,-1.10046,36.702703,689deff9-612c-420f-a467-c7a3f60e100c,4085726.20869676,-122510.179310506
131,31,KIBUBUTI HEALTH CENTRE,2412,CENTRAL,KIAMBU,KIAMBAA,WAGUTHU,KANUNGA,SUBLOC CENTROID,3,MISS,-1.157365,36.783449,f7288da8-74c9-4b62-90e8-f7649769fa99,4094714.81230036,-128846.045002379
132,32,KIENI FOREST DISP,215,CENTRAL,KIAMBU,LARI,KINALE,MUKEU(KIAMBU),SUBLOC CENTROID,4,MOH,-0.921169,36.648379,27f7f1e2-d8ec-4730-a873-fba0614d6ffa,4079678.8886789,-102548.481963609
133,33,KIENI HEALTH CENTRE,2448,CENTRAL,KIAMBU,LARI,KAMAE,KAMUKOMBI-INI,1:50000 MAPS,3,MOH,-0.858108,36.619369,72b2e17f-80e3-446f-bbdc-7cb8c7b56d1b,4076449.51025099,-95527.7168938642
134,34,KIGUMO HEALTH CENTRE,237,CENTRAL,KIAMBU,GITHUNGURI,KOMOTHAI,KARATINA,1:50000 MAPS,3,MOH,-1.031082,36.82658,14ca0141-e4ab-41fd-955d-c82e85ea826e,4099516.13325776,-114785.718893184
135,35,KIHARA HEALTH CENTRE,216,CENTRAL,KIAMBU,KIAMBAA,KIHARA,MAHINDI,DDP,3,MOH,-1.21091,36.7386,c2f4245a-ca0a-4985-bbaa-2d713d6c7cdd,4089722.24445777,-134807.920553488
136,36,KIJABE HOSPITAL,252,CENTRAL,KIAMBU,LARI,KIJABE,KIJABE,GPS,1,MISS,-0.94349,36.59431,601f204e-9ff7-491b-b87b-6411c44b8675,4073659.95513121,-105033.573333682
137,37,KIMATHI DISP,0,CENTRAL,KIAMBU,GITHUNGURI,NGEWA,KIMATHI(KIAMBU),DDP,4,MOH,-1.1077,36.8684,44cfde34-5286-45d9-8cbd-86ddcf567eac,4104171.51436273,-123316.282083376
138,38,KINALE FOREST DISP,217,CENTRAL,KIAMBU,LARI,KINALE,MUKEU(KIAMBU),1:50000 MAPS,4,MOH,-0.911261,36.61036,bab9786c-093e-40d3-9382-0e2ed4e7e04f,4075446.63295844,-101445.387413716
139,39,KINALE HEALTH CENTRE,2452,CENTRAL,KIAMBU,LARI,KINALE,MUKEU(KIAMBU),DDP,3,MOH,-0.908237,36.6157,c14b4aca-ea79-4704-8f80-e9997f93c8e3,4076041.07903927,-101108.714834378
140,40,KIRATINA DISP,0,CENTRAL,KIAMBU,GITHUNGURI,KOMOTHAI,KARATINA,DDP,4,MOH,-1.03614,36.8203,9e05c287-8040-4e04-aaae-1193e0e96970,4098817.04685557,-115348.864509953
141,41,KIRIITA DISP,213,CENTRAL,KIAMBU,LARI,GATAMAIYU,KAGWE,1:50000 MAPS,4,MOH,-0.985135,36.6964,2e40cdd1-be27-401f-8f32-2b7a4a6039a5,4085024.56194629,-109670.130297613
142,42,KIRIITA MISSION HC,235,CENTRAL,KIAMBU,LARI,KIJABE,BATHI,ILRI VILLAGES,3,MISS,-0.97,36.63,abfafc0e-2651-437b-a342-132c17b3e4c3,4077632.94775762,-107985.064540776
143,43,LARI HEALTH CENTRE,239,CENTRAL,KIAMBU,LARI,KIRENGA,ESCARPMENT,DDP,3,MOH,-1.02791,36.605,371fd6eb-16da-430c-bed1-318432e7b683,4074849.96048779,-114432.556460201
144,44,LIMURU HEALTH CENTRE,240,CENTRAL,KIAMBU,LIMURU,LIMURU,KAMIRITHU,DDP,3,MOH,-1.11593,36.6366,15b36565-0d84-4a16-afa7-642b5e062501,4078367.65639685,-124232.614009233
145,45,LIOKI MISSION DISP,3090,CENTRAL,KIAMBU,GITHUNGURI,IKINU,RIUKI,SUBLOC CENTROID,4,MISS,-1.102112,36.830408,0931ad44-2160-4011-ad38-377c3c8eb333,4099942.26426851,-122694.113085372
146,46,LITTLE SERVANT OF SACRET HEART DISP,435,CENTRAL,KIAMBU,KIAMBAA,KIAMBAA,NJORO(KIAMBU),SUBLOC CENTROID,4,MISS,-1.192355,36.771525,14b07bb7-ee30-4722-a953-7aa83181262d,4093387.43869213,-132741.933053969
147,61,UTANGE REFUGEE CAMP DISP,0,COAST,MOMBASA,KISAUNI,BAMBURI,MWEMBE LEGEZA,SUBLOC CENTROID,4,NGO,-3.979314,39.718534,c2165bc4-b83f-4bd4-9394-d1bf453a6d44,4421446.97993533,-443331.760664843
148,62,WATAMU DISP,558,COAST,MOMBASA,LIKONI,MTONGWE,MTONGWE,ILRI MKT CENTRES,4,MOH,-4.06546,39.6,ee5d5782-631e-4d60-8b47-69ca745ecff5,4408251.83541364,-452945.170967792
149,47,LUSIGETTI HEALTH CENTRE,2437,CENTRAL,KIAMBU,KIKUYU,KARAI,LUSINGETTI,1:50000 MAPS,3,MOH,-1.28,36.6136,c0ad9d70-9643-4864-8f9c-293d4a5fda76,4075807.30810861,-142500.802048177
150,0,BUGUTA DISP,0,COAST,TAITA TAVETA,VOI,KASIGAU,BUGUTA,SUBLOC CENTROID,4,MOH,-3.67546,38.654357,5c613a33-eac2-4f3d-bcf6-c79d39a32b2a,4302983.33818142,-409431.238963525
151,1,BURA DISP,704,COAST,TAITA TAVETA,MWATATE,BURA,NYOLO,DANIDA,4,MOH,-3.50013,38.315701,6783e4cf-967a-48e5-b737-e1aef3a1ec4f,4265284.32470733,-389875.256831768
152,48,MIGAA DISP,321,CENTRAL,KIAMBU,KIAMBAA,CIANDA,CIANDA,ILRI VILLAGES,4,MOH,-1.12,36.8,8fa16a47-83ba-4b38-a1ca-d0fcb9679a06,4096557.26119248,-124685.770598093
153,2,BURA MISSION DISP,705,COAST,TAITA TAVETA,MWATATE,BURA,NYOLO,DDP,4,MISS,-3.504139,38.289771,7bfd0ece-309e-4d79-a224-9b4eb9fcfb03,4262397.81031106,-390322.371646894
154,3,CHALA DISP,706,COAST,TAITA TAVETA,TAVETA,CHALA,CHALA,DANIDA,4,MOH,-3.29582,37.736031,6fea6ec4-954b-4a94-a843-294ce8e1b2d8,4200755.75547919,-367091.503949215
155,4,ELDORO MISSION DISP,707,COAST,TAITA TAVETA,TAVETA,KIMORIGO,KIMORIGO,DDP,4,MISS,-3.438287,37.694258,3cc14f7e-c665-44d1-9744-bbb689c6dca0,4196105.60639028,-382978.286269257
156,49,MIGUTA DISP,0,CENTRAL,KIAMBU,GITHUNGURI,GITHUNGURI,KIAIRIA,ILRI VILLAGES,4,MISS,-1.07,36.8,b0a5f1a5-f416-4030-afb3-724eda718279,4096557.26119248,-119118.77925781
157,5,GHAZI DISP,708,COAST,TAITA TAVETA,TAUSA,NGOLIA,GHAZI,DANIDA,4,MOH,-3.28928,38.446301,00fc232b-d91c-4487-aada-fd181269c349,4279822.65020493,-366362.27072869
158,50,MOST PRECIOUS BLOOD DISP,3903,CENTRAL,KIAMBU,LIMURU,TIGONI,RED HILL,ILRI VILLAGES,4,MISS,-1.18,36.7,fc37bcbb-73da-46df-b97a-e8b5e389b979,4085425.31211314,-131366.285950593
159,6,KAJIRE DISP,2883,COAST,TAITA TAVETA,VOI,SAGALLA,KISHAMBA(VOI),DANIDA,4,MOH,-3.51759,38.60778,93eb1ace-2036-4d24-9b64-4242d6751fa6,4297798.41025874,-391822.545641007
160,51,NAZARETH HOSPITAL,255,CENTRAL,KIAMBU,LIMURU,KARAMBAINI,KARAMBAINI,1:50000 MAPS,1,MISS,-1.13378,36.7257,88ee3880-28b4-400d-bff3-e9fe823a4508,4088286.22302654,-126220.04992638
161,7,KASIGAU HEALTH CENTRE,732,COAST,TAITA TAVETA,WUNDANYI,WERUGHA,MLONDO,DANIDA,3,MOH,-3.3842,38.3438,77e52734-d9e4-40fa-8af4-6e2e2ae8726d,4268412.29107913,-376946.661736213
162,8,KIMORIGO DISP,710,COAST,TAITA TAVETA,TAVETA,KIMORIGO,KIMORIGO,DANIDA,4,MOH,-3.46046,37.69194,36af8028-e384-4bd3-b7f9-7f3125306a2d,4195847.56781062,-385451.053139252
163,52,NDEIYA HEALTH CENTRE,3928,CENTRAL,KIAMBU,LIMURU,NDEIYA,NDERU,DDP,3,MOH,-1.16975,36.5942,450df785-acf5-481e-ba2d-736f024c46a7,4073647.70998722,-130225.02124138
164,9,KISHUSHE DISP,711,COAST,TAITA TAVETA,WUNDANYI,KISHUSHE,KISHUSHE,DANIDA,4,MOH,-3.2783,38.323799,55d590be-4fed-441d-8461-eacc941cb3b5,4266185.78994377,-365137.972496779
165,53,NDERU DISP,221,CENTRAL,KIAMBU,LIMURU,NDEIYA,NDERU,1:50000 MAPS,4,MOH,-1.142793,36.60586,e82d738a-517f-4fbf-a9e7-03fd4472b83b,4074945.69524987,-127223.570532008
166,10,KITOBO DISP,2884,COAST,TAITA TAVETA,TAVETA,KIMORIGO,KITOBO,DANIDA,4,MOH,-3.44028,37.613098,7ff59ae2-dfa4-4fa5-9613-5f33d1d77755,4187070.9165175,-383200.546320048
167,54,NDURIRI DISP,0,CENTRAL,KIAMBU,LARI,NYANDUMA,GACHOIRE,1:50000 MAPS,4,MISS,-0.984242,36.70945,20947a9b-44f3-4eea-84ea-b7e8f947d5dd,4086477.28130114,-109570.707309881
168,11,KITOBO DISP,0,COAST,TAITA TAVETA,TAVETA,KIMORIGO,KITOBO,SUBLOC CENTROID,4,MISS,-3.455871,37.63136,3babd043-0045-4db3-84e2-a0bdf76b6406,4189103.83305837,-384939.276104609
169,55,NDURIRI DISP,3974,CENTRAL,KIAMBU,LARI,NYANDUMA,GACHOIRE,1:50000 MAPS,4,MOH,-0.984685,36.70901,5802edd9-9a3a-4558-88cb-07d8eabbf3f6,4086428.30072519,-109620.029124655
170,12,MAKWASINJI DISP,4655,COAST,TAITA TAVETA,VOI,KASIGAU,MAKWASINYI,DANIDA,4,MOH,-3.81333,38.681469,add7f338-a0d8-4440-aee9-9404517bc064,4306001.4322158,-424811.693294652
171,13,MANYANI DISP,3313,COAST,TAITA TAVETA,TSAVO N. PARK,TSAVO N. PARK,TSAVO N. PARK,ILRI MKT CENTRES,4,MOH,-3.089864,38.477242,4aab05b6-7c04-4e80-a510-e4ded63e5547,4283266.98656956,-344128.930373774
172,56,NGARARIGA MISSION DISP,3100,CENTRAL,KIAMBU,LIMURU,LIMURU,BIBIRIONI,1:50000 MAPS,4,MISS,-1.069369,36.617117,214bc85c-fc9a-4831-907d-cbbc2242ed45,4076198.81875773,-119048.524415783
173,0,MARUNGU DISP,0,COAST,TAITA TAVETA,VOI,KASIGAU,BUGUTA,SUBLOC CENTROID,4,MISS,-3.674076,38.659203,9110c3cc-9f6a-4fb5-ab18-1e994bb17d71,4303522.7924338,-409276.855366379
174,14,MATA DISP,714,COAST,TAITA TAVETA,TAVETA,JIPE,MATA,DANIDA,4,MOH,-3.47483,37.7561,333a9383-13b2-441a-b275-f0ce32f99efb,4202989.82633992,-387053.648396255
175,57,NGECHA ORTHODOX  DISP,0,CENTRAL,KIAMBU,LIMURU,NGECHA,NGECHA,SUBLOC CENTROID,4,MISS,-1.169356,36.670303,39c5ff3b-acc2-4cd6-b588-a2af943cd03f,4082119.45719506,-130181.15222282
176,15,MBALE HEALTH CENTRE,733,COAST,TAITA TAVETA,WUNDANYI,MBALE,MBALE CENTRAL,DANIDA,3,MOH,-3.3793,38.383011,76791094-c9a2-4746-a5b1-a0d964ff8c7b,4272777.23963263,-376400.24473759
177,58,NGEWA HEALTH CENTRE,243,CENTRAL,KIAMBU,GITHUNGURI,NGEWA,NYAGA,1:50000 MAPS,3,MOH,-1.092343,36.863964,7e476880-e6e2-4692-97f3-b71d6d9fb3c5,4103677.70110158,-121606.433541466
178,16,MGANGE DISP,715,COAST,TAITA TAVETA,WUNDANYI,MGANGE,MGANGE NYIKA,DANIDA,4,MOH,-3.40141,38.313862,ebe0efd3-12c9-44ce-8825-c9b20e009232,4265079.60816376,-378865.833975504
179,59,NYAGA HEALTH CENTRE,0,CENTRAL,KIAMBU,GITHUNGURI,NGEWA,NYAGA,DDP,3,MOH,-1.10326,36.8716,290aae2f-720a-49ee-b6cf-231cf5b055a4,4104527.73673327,-122821.931531368
180,17,MGANGE DISP,0,COAST,TAITA TAVETA,WUNDANYI,WERUGHA,WERUGHA,ILRI VILLAGES,4,MISS,-3.39,38.32,6507b65c-ac73-4c11-b6fc-4f88be6d0b5e,4265762.88719825,-377593.444612326
181,18,MNENGWA  DISP,4008,COAST,TAITA TAVETA,MWATATE,MWAKITAU,GODOMA(TAVETA),PSI,4,MOH,-3.4314,38.2421,855ed84f-d364-402d-a339-8e852771ae6f,4257091.09886545,-382210.24921637
182,60,NYATHUNA HEALTH CENTRE,260,CENTRAL,KIAMBU,KIKUYU,NYATHUNA,KIRANGARI(KIAMBU),DDP,3,MOH,-1.20204,36.7031,dedd5962-f54f-4a78-9014-567256df24ba,4085770.40253461,-133820.297723441
183,19,MOI VOI DISTRICT HOSPITAL,739,COAST,TAITA TAVETA,VOI,VOI,KALOLENI(TAVETA),DANIDA,1,MOH,-3.39091,38.56205,57a71f4b-e1a7-48f0-81fa-a85c17b0fa3d,4292707.76994476,-377694.922967124
184,61,P.C.E.A GATHIRUINI DISP,0,CENTRAL,KIAMBU,GITHUNGURI,KOMOTHAI,KIBICHOI,SUBLOC CENTROID,4,MISS,-1.049952,36.87118,d6798702-2c98-45c6-976a-d4932c3737b2,4104480.98254714,-116886.664132251
185,20,MPINZINYI HEALTH CENTRE,734,COAST,TAITA TAVETA,MWATATE,KISHAMBA,KAYA/ILOLE,DANIDA,3,MOH,-3.45746,38.37886,4355d6e3-ef6e-4ada-baa5-adbe97a544d4,4272315.15242634,-385116.485174473
186,62,P.C.E.A. KIKUYU HOSPITAL,2441,CENTRAL,KIAMBU,KIKUYU,KIKUYU,KIKUYU TOWNSHIP,DDP,1,MISS,-1.26667,36.6667,39e440c6-29cb-404f-a1aa-733f8a82a98c,4081718.37306973,-141016.546709886
187,21,MRUGUA DISP,717,COAST,TAITA TAVETA,MWATATE,BURA,MURUGUA,DANIDA,4,MOH,-3.43486,38.290909,dd0807b5-8616-4e3a-9541-44b241a90432,4262524.49189158,-382596.107127351
188,22,MSAU DISP,718,COAST,TAITA TAVETA,TAUSA,RONGE,MSAU/RAHAI,DANIDA,4,MOH,-3.4139,38.408401,e96b6953-e5ce-42bc-9271-cdc158e8d1ae,4275603.64150386,-380258.677110655
189,63,RAGIA FOREST DISP,225,CENTRAL,KIAMBU,LARI,KAMAE,KAMAE,ILRI VILLAGES,4,MOH,-0.790616,36.661129,ffda6756-b24a-458e-8f44-bad5f1e0ea34,4081098.21218652,-88013.7636695538
190,23,MWAKITAU DISP,719,COAST,TAITA TAVETA,MWATATE,MWAKITAU,MWAKITAU,DANIDA,4,MOH,-3.40801,38.136189,86720976-081e-4a4e-9e28-0f261ae1d118,4245301.14027605,-379601.841706129
191,64,RAGIA HEALTH CENTRE,2449,CENTRAL,KIAMBU,LARI,KAMAE,KAMAE,DDP,3,MOH,-0.791728,36.6759,603bd538-5cbe-4b51-a26b-5924b750f55d,4082742.51238503,-88137.5627459044
192,24,MWAMBIRWA DISP,720,COAST,TAITA TAVETA,MWAMBIRWA,RONGE JUU,KISHAU/KIWETO,DANIDA,4,MOH,-3.35282,38.431301,06a40193-18b5-4dfe-8d29-7797a5fe1dc6,4278152.85784303,-373447.410317154
193,65,THIGIO MISSION DISP,227,CENTRAL,KIAMBU,LIMURU,NDEIYA,THIGIO(KIAMBU),ILRI VILLAGES,4,MISS,-1.18,36.6,df4260c7-3b52-4fd4-bd28-b0d52a51649d,4074293.36303382,-131366.285950593
194,25,MWANDA DISP,721,COAST,TAITA TAVETA,WUNDANYI,MWANDA,KISHAMBA(WUNDANYI),DANIDA,4,MOH,-3.40195,38.285809,071b0a38-8e81-4d58-872d-99f677db2b83,4261956.76248853,-378926.052600417
195,66,TIGONI SUB-DISTRICT HOSPITAL,257,CENTRAL,KIAMBU,LIMURU,TIGONI,ITHANJI(KIAMBU),DDP,1,MOH,-1.12859,36.6493,a65959eb-f5e0-4ff6-ab73-f2620549a07f,4079781.41392993,-125642.189152704
196,26,MWATATE HEALTH CENTRE,735,COAST,TAITA TAVETA,MWATATE,MWACHABO,MWACHABO,DANIDA,3,MOH,-3.50728,38.368629,82c4fc31-fc33-4a87-8d0f-44dc7401ca77,4271176.24271604,-390672.681699219
197,27,NDOME DISP,723,COAST,TAITA TAVETA,TAUSA,NGOLIA,NDOME,DANIDA,4,MOH,-3.297,38.477959,b555354b-aba6-469d-bce3-32cf624399d2,4283346.80264446,-367223.078649031
198,67,TIN'GAN'GA DISP,229,CENTRAL,KIAMBU,KIAMBAA,TING'ANG'A,TING'ANG'A,DDP,4,MISS,-1.13366,36.8083,7cd20b91-7b17-41e9-b11d-64be804f29a4,4097481.21296606,-126206.688971958
199,35,NDOVU DISP,727,COAST,TAITA TAVETA,VOI,VOI,MWANGEA,ILRI MKT CENTRES,4,MOH,-3.394956,38.551224,ea2505d0-3772-4696-9d33-c22cef5056d8,4291502.62513743,-378146.112501167
200,28,NJUKINI DISP,724,COAST,TAITA TAVETA,TAVETA,NJUKINI,NJUKINI(TAVETA),DANIDA,4,MOH,-3.19,37.725128,293e45c1-82e7-4d7f-b3f9-c7c038b1edf2,4199542.03907107,-355292.780196065
201,68,UPLANDS DISP,230,CENTRAL,KIAMBU,LARI,LARI,GITHIRIONI,DDP,4,MOH,-1.04691,36.6778,13727bba-f704-4c45-af06-e54df3b3e6ab,4082954.01941754,-116547.973539599
202,29,NYACHE HEALTH CENTRE,736,COAST,TAITA TAVETA,WUNDANYI,WUMINGU,NYACHE,DANIDA,3,MOH,-3.33836,38.380901,407d8781-86e8-4a46-94df-25be305a4e00,4272542.35550705,-371834.982410482
203,69,UTHIRU DISP,231,CENTRAL,KIAMBU,KIKUYU,KINOO,UTHIRU(KIAMBU),1:50000 MAPS,4,MOH,-1.2526,36.7086,a01571c9-0074-4c84-9bdc-1fedb702a7b3,4086382.65973397,-139449.902882387
204,30,SAGAIGU DISP,2881,COAST,TAITA TAVETA,MWATATE,BURA,SAGHAIGU,DANIDA,4,MOH,-3.43297,38.3335,79113a9c-10c4-407e-81fe-5b357618270e,4267265.70032396,-382385.334858231
205,70,WANGIGE HEALTH CENTRE,249,CENTRAL,KIAMBU,KIKUYU,NYATHUNA,KARURA(KIKUYU),1:50000 MAPS,3,MOH,-1.21737,36.7261,9bc4c131-81bf-4337-a2b2-d75eecc6e267,4088330.75082285,-135527.205955002
206,31,SAGALA HEALTH CENTRE,737,COAST,TAITA TAVETA,VOI,SAGALLA,TERI,DANIDA,3,MOH,-3.49354,38.582191,a443668a-6e34-4f29-9b4f-87b23f94a0c4,4294949.85580883,-389140.293008749
207,1,BARICHO HEALTH CENTRE,297,CENTRAL,KIRINYAGA,NDIA,MWERUA,KIANJANG'A,DDP,3,MOH,-0.563405,37.2305,a1833f6c-13d4-4774-86e9-706fcc8632d4,4144480.30197898,-62718.9684686042
208,32,SHELEMBA DISP,725,COAST,TAITA TAVETA,TAUSA,RONGE,RONG'E NYIKA,DANIDA,4,MOH,-3.43161,38.46846,695f84bb-7280-4a32-ada3-b1e90b721c57,4282289.37880142,-382233.668298299
209,33,TAUSA DISP,3923,COAST,TAITA TAVETA,TAUSA,MBOLOLO,TAUSA,DANIDA,4,MOH,-3.34175,38.50169,df9f8d45-cb1a-4111-af2e-6992341cea81,4285988.52548048,-372212.997607349
210,2,BARICHO MISS H C,3082,CENTRAL,KIRINYAGA,NDIA,MWERUA,KIANJANG'A,HD MAPS,3,MISS,-0.568805,37.2387,90a14258-079b-4947-9e0a-0dd668ec225c,4145393.12180348,-63320.1230618987
211,34,TAVETA DISTRICT HOSPITAL,740,COAST,TAITA TAVETA,TAVETA,BOMANI,MBOGHONI,DANIDA,1,MOH,-3.3987,37.67725,2a1686ca-7c2a-45c9-ac0c-b1b7d7130ab9,4194212.28449087,-378563.626200536
212,3,CASTLE FOREST DISP,3763,CENTRAL,KIRINYAGA,GICHUGU,KARUMANDI,THUMAITA,1:50000 MAPS,4,MOH,-0.42234,37.351234,43428036-1796-490c-839c-8e193c73777f,4157920.34938041,-47015.0995039656
213,36,WERUGHA DISP,729,COAST,TAITA TAVETA,VOI,KASIGAU,RUKANGA(TAVETA),DANIDA,4,MOH,-3.81356,38.639858,e25f04ff-6daa-47ab-94b2-e98ec3da7947,4301369.3168844,-424837.353592279
214,37,WESU DISTRICT HOSPITAL,741,COAST,TAITA TAVETA,WUNDANYI,WUNDANYI,WUNDANYI,DANIDA,1,MOH,-3.40885,38.342159,54f51fd2-4c18-4978-9a33-2dbd11c07afd,4268229.61579474,-379695.515779284
215,4,CHRISTIAN COMMUNITY SERVICES BASE DISP,0,CENTRAL,KIRINYAGA,CENTRAL,INOI,NDIMI,HD MAPS,4,MISS,-0.49407,37.2597,6bc9a29e-2748-4860-ba44-63540a797378,4147730.83111014,-55000.3024454852
216,38,WUNDANYI HEALTH CENTRE,738,COAST,TAITA TAVETA,WUNDANYI,WUNDANYI,WUNDANYI,DDP,3,MOH,-3.41828,38.359781,19e65895-ced7-4df9-bb02-1b16dbe0860f,4270191.2878615,-380747.12438583
217,5,CIAGINI DISP,86,CENTRAL,KIRINYAGA,MWEA,THIBA,WAMUMU,HD MAPS,4,MOH,-0.75776,37.3783,ebed50b9-bde4-47d4-80b2-bcca19bb4315,4160933.32271822,-84355.9165144366
218,39,WUSI WUKESIA DISP,730,COAST,TAITA TAVETA,MWATATE,CHAWIA,CHAWIA,DDP,4,MISS,-3.469733,38.354562,c6bf916e-5f14-4fa4-a523-ed06b10a91d8,4269610.31143904,-386485.209420106
219,1,ASAKO DISP,1188,COAST,TANA RIVER,BANGALE,MBALAMBALA,ASAKO,SUBLOC CENTROID,4,MOH,-0.151968,39.014671,8142fc35-d425-4d4c-99b5-2f92247d9db6,4343093.30918711,-16917.0202118527
220,6,DIFATHAAS CATHOLIC DISP,4713,CENTRAL,KIRINYAGA,MWEA,MURINDUKO,KAMUNYANGE,1:50000 MAPS,4,MISS,-0.551802,37.400901,69c7d53a-81a4-4665-8cd6-25b16bb84945,4163449.25452964,-61427.2672453047
221,2,ASSA DISP,742,COAST,TANA RIVER,GARSEN,ASSA,ASSA,DANIDA,4,MOH,-2.05182,39.424629,bdea683f-b8e9-4a35-92fa-4e26e2fa6942,4388729.62499373,-228456.392661027
222,7,DIFATHAS DISP,263,CENTRAL,KIRINYAGA,MWEA,MURINDUKO,KAMUNYANGE,HD MAPS,4,MOH,-0.59514,37.4125,352e3d74-69c6-4fb9-98a4-d2185ed5d3b7,4164740.44930336,-66251.8731129478
223,3,BANGALE DISP,743,COAST,TANA RIVER,BANGALE,BANGALE,BANGALE,DANIDA,4,MOH,-0.72541,39.016659,86c312fa-b7c5-4ae4-b369-0aee62e39091,4343314.6123348,-80754.4292761554
224,8,GACHIONGO DISP,264,CENTRAL,KIRINYAGA,GICHUGU,NJUKIINI,NGIRIAMBU,HD MAPS,4,MOH,-0.50091,37.4056,9d1bfbdb-5538-44f8-822e-7595a07cc4a9,4163972.34481688,-55761.7564664349
225,4,BURA CATHOLIC DISP(TANA RIVER),744,COAST,TANA RIVER,BURA,CHEWELE,WADESA,ILRI MKT CENTRES,4,MISS,-1.084244,39.91806,7d6ec7b2-116a-47ea-973e-025fca7921df,4443658.11265534,-120704.694323301
226,32,KIANDAI ACK DISP,4721,CENTRAL,KIRINYAGA,GICHUGU,KIRIMA,GACHIGI,ILRI VILLAGES,4,MISS,-0.48,37.3,8d2c3b1b-6f8a-4c0c-88a4-18f5b030a15f,4152217.00658911,-53433.9806182005
227,5,BURA HEALTH CENTRE,791,COAST,TANA RIVER,BURA,BURA,METI,DANIDA,3,MOH,-1.18281,39.838829,c916302f-df7e-42da-b0eb-a73325a68372,4434838.1580803,-131679.160228203
228,9,GATHAMBI DISP,265,CENTRAL,KIRINYAGA,CENTRAL,INOI,NDIMI,HD MAPS,4,MOH,-0.48343,37.2483,9a31fd07-850d-497a-9693-a685a580a55d,4146461.7889151,-53815.8199669979
229,33,KIANGAI DISP,281,CENTRAL,KIRINYAGA,NDIA,MUKURE,MUKURE,HD MAPS,4,MOH,-0.48115,37.2073,dd1033e6-7604-495a-b104-be20d26fb6c8,4141897.68979257,-53562.002535895
230,6,BURA NYS DISP,745,COAST,TANA RIVER,BURA,BURA,METI,DANIDA,4,MOH,-1.18688,39.82103,73a654cb-aae1-4481-bd1e-b1847ff9d49f,4432856.78246368,-132132.327448478
231,10,GATHIGIRIRI DISP,266,CENTRAL,KIRINYAGA,MWEA,TEBERE,KARUKUNGU,HD MAPS,4,MOH,-0.71293,37.4391,7be93298-a821-4b25-a29d-2688d33fb78a,4167701.54775845,-79365.0525817371
232,34,KIANG'OMBE DISP,282,CENTRAL,KIRINYAGA,GICHUGU,KABARE,KIRITINI,HD MAPS,4,MOH,-0.49635,37.3129,3e14bfc8-66a4-4b7f-83ad-858b74414ef2,4153653.02802035,-55254.1203648316
233,35,KIANJEGE DISP,283,CENTRAL,KIRINYAGA,NDIA,KIINE SOUTH,NYANGIO,HD MAPS,4,MOH,-0.5883,37.1624,6956a575-4b94-45d2-8bce-feb7e2f47fcb,4136899.44465595,-65490.4071881929
234,7,CHEWANI DISP,748,COAST,TANA RIVER,GALORE,CHEWANI,CHEWANI,DANIDA,4,MOH,-1.43728,40.02169,d536f051-51f4-41f0-8bc2-8d568075463c,4455194.15148625,-160014.060633738
235,11,GATUGURA DISP,267,CENTRAL,KIRINYAGA,GICHUGU,KIRIMA,MUTIGE,HD MAPS,4,MOH,-0.45683,37.316,dbbbc1fb-d15f-4c59-b868-16a7dd1b0529,4153998.1184418,-50854.6218012458
236,36,KIANYAGA H C,299,CENTRAL,KIRINYAGA,GICHUGU,BARAGWI,GATU,HD MAPS,3,MOH,-0.50091,37.3296,ff76ad36-2e89-445b-838a-59eeaf0caf25,4155512.06351659,-55761.7564664349
237,12,GATUMBI S D A DISP,268,CENTRAL,KIRINYAGA,GICHUGU,NGARIAMA,THIRIKWA,HD MAPS,4,MISS,-0.45759,37.3798,35da9a62-6931-42b0-a8d2-8ad9dc959ad7,4161100.30195441,-50939.2273079647
238,8,CHEWELE DISP,749,COAST,TANA RIVER,BURA,CHEWELE,CHEWELE,DANIDA,4,MOH,-1.158,39.951618,e72a9d9a-1dd3-4b34-ba40-56ec0dc5ef19,4447393.77212739,-128916.747310898
239,37,KIANYAGA MISS H C,3081,CENTRAL,KIRINYAGA,GICHUGU,BARAGWI,RWAMBITI,HD MAPS,3,MISS,-0.51079,37.3426,5bd21371-6d77-4463-822a-44cca6aec42d,4156959.2168969,-56861.6359025875
240,13,GATWE DISP,269,CENTRAL,KIRINYAGA,CENTRAL,KERUGOYA,KIMANDI,HD MAPS,4,MOH,-0.46443,37.284,02a24565-238e-4575-83e1-e98c8e799682,4150435.89473642,-51700.6772736017
241,9,CHIFIRI DISP,0,COAST,TANA RIVER,GALORE,CHIFIRI,CHIFIRI,DDP,4,MOH,-1.191098,39.164769,f3f4ce6c-4c3f-4528-a9d6-2f14b7f46534,4359802.14211619,-132601.974180533
242,38,KIARAGANA DISP,284,CENTRAL,KIRINYAGA,NDIA,MUKURE,KANYOKORA,HD MAPS,4,MOH,-0.51231,37.2035,a5cd6de5-1f43-45f6-9b88-d461fc286c9d,4141474.67572756,-57030.8482727967
243,14,GIRIAMBU ACK DISP,0,CENTRAL,KIRINYAGA,GICHUGU,NJUKIINI,NGIRIAMBU,SUBLOC CENTROID,4,MISS,-0.497068,37.38695,9a6d73a1-a62c-4768-909c-9c8cfd66bc0b,4161896.23631359,-55334.050762794
244,10,DABA DISP,750,COAST,TANA RIVER,GALORE,WAYU,WAYU,ILRI VILLAGES,4,MISS,-1.57,39.45,ad6ab973-0d7b-43f9-8d42-e8e8dd961bb6,4391553.91179465,-174793.475904276
245,39,KIBIRIGWI DISP,285,CENTRAL,KIRINYAGA,NDIA,KIINE SOUTH,NYANGIO,HD MAPS,4,MOH,-0.55638,37.1495,14c8dbf8-c18a-47cd-b3fe-fb0b3c509eea,4135463.42322472,-61936.9117057612
246,15,GITHUANI C P K DISP,4716,CENTRAL,KIRINYAGA,NDIA,KIINE SOUTH,THIGIRICHI,HD MAPS,4,MISS,-0.62098,37.1792,20abf07c-a2fc-4ccd-9521-1ed258d1f765,4138769.61210128,-69128.5307744699
247,12,ELDORO DISP(TANA RIVER),751,COAST,TANA RIVER,TSAVO E  N .PARK,TSAVO E  N .PARK,TSAVO E N PARK,ILRI VILLAGES,4,MISS,-2.97,39.11,59a8014c-8c45-4667-927e-53a2b99da0c9,4353705.28492494,-330767.049341857
248,40,KIMBIMBI HEALTH CENTRE,300,CENTRAL,KIRINYAGA,MWEA,NYANGATI,NYANGATI,GPS,3,MOH,-0.61705,37.3651,4ecaa74a-7df7-479e-87fb-e90547175025,4159463.90543975,-68691.0196419688
249,16,GITHURE DISP,4724,CENTRAL,KIRINYAGA,GICHUGU,NGARIAMA,THIRIKWA,HD MAPS,4,MISS,-0.47051,37.3836,4ea572cb-07b1-4024-909d-507a29c8da44,4161523.31601943,-52377.5223057579
250,13,EMMAUS DISP,752,COAST,TANA RIVER,GALORE,KIARIKUNGU,KIARIKUNGU,ILRI MKT CENTRES,4,MISS,-1.499007,40.02795,921c846c-c94a-48de-8365-ffa313a25dc2,4455891.01149862,-166887.735631277
251,41,KIUMBUINI DISP,286,CENTRAL,KIRINYAGA,MWEA,TEBERE,KARUKUNGU,HD MAPS,4,MOH,-0.72129,37.474,0341c125-fb5d-40dd-a280-0407408505f4,4171586.59798714,-80295.7564213299
252,17,JESMOND MBURI DISP,0,CENTRAL,KIRINYAGA,GICHUGU,NJUKIINI,MIRICHI,HD MAPS,4,MISS,-0.5237,37.3988,f24aa066-89e8-46c5-a3ee-69fc67d8d2e5,4163215.37227949,-58298.8290956137
253,14,GARSEN HEALTH CENTRE,792,COAST,TANA RIVER,GARSEN,BILISA,CHIRA,DANIDA,3,MOH,-2.27091,40.10762,3454908a-288a-4cd7-8911-1f2484deab22,4464759.83533012,-252862.758112333
254,42,KUTUS CATHOLIC DISP,4714,CENTRAL,KIRINYAGA,CENTRAL,KUTUS,KAMUIGUA,GPS,4,MISS,-0.56432,37.32517,cb265e38-ffc6-4552-a85d-85a326e7bca3,4155018.91817238,-62820.8307353411
255,18,KABARE DISP,270,CENTRAL,KIRINYAGA,GICHUGU,KABARE,KIRITINI,HD MAPS,4,MOH,-0.51458,37.3175,372c4db6-7b22-4bf3-9409-df133a6b7c55,4154165.09767799,-57283.5536636
256,15,HOLA DISTRICT HOSPITAL,795,COAST,TANA RIVER,GALORE,KIARIKUNGU,KIARIKUNGU,DANIDA,1,MOH,-1.4988,40.030251,75ff5581-7d3c-487a-baeb-fbee7534e58e,4456147.15764694,-166864.684609217
257,43,MBIRI ACK DISP,4727,CENTRAL,KIRINYAGA,GICHUGU,NJUKIINI,NGERWE,ILRI VILLAGES,4,MISS,-0.48,37.4,1ae25da1-424d-40c5-8e48-1d0726f4ec82,4163348.95566844,-53433.9806182005
258,19,KAGIO CATHOLIC DISP,271,CENTRAL,KIRINYAGA,NDIA,MWERUA,KITHUMBU,HD MAPS,4,MISS,-0.63009,37.227,18384cfc-15dc-4e11-92b9-2cce3739fd62,4144090.6837612,-70142.7117787027
259,16,HOLA MISSION DISP,2454,COAST,TANA RIVER,GALORE,ZUBAKI,HOLA,SUBLOC CENTROID,4,MISS,-1.512465,40.03208,265f34c7-bf15-4723-8e3c-eb8a96c04b82,4456350.7609956,-168386.390828455
260,44,MBURI ACK DISP,4729,CENTRAL,KIRINYAGA,CENTRAL,KERUGOYA,KAITHERI,1:50000 MAPS,4,MISS,-0.52252,37.29279,301e3e1a-e71f-41ab-adcb-6324cc6cc9ee,4151414.39306049,-58167.4666215347
261,17,HURUMA DISP,753,COAST,TANA RIVER,BURA,CHEWELE,WADESA,ILRI MKT CENTRES,4,MISS,-1.084244,39.918406,398f5bc4-5fe0-430c-8548-c9023304866e,4443696.62919916,-120704.694323301
262,20,KAGUMO DISP,272,CENTRAL,KIRINYAGA,NDIA,MUTIRA,KABARI(NDIA),GPS,4,MOH,-0.47139,37.23641,8af16e50-e389-414d-82c6-aada2155e37c,4145138.20016956,-52475.4867669887
263,18,IDSOWE DISP,754,COAST,TANA RIVER,GARSEN,BILISA,GARSEN,DANIDA,4,MOH,-2.29391,40.122978,2c65716a-6121-4f63-a27f-490680c921bb,4466469.48006972,-255425.139235162
264,21,KAMWETI DISP,274,CENTRAL,KIRINYAGA,GICHUGU,KIRIMA,NJUKU,HD MAPS,4,MOH,-0.44391,37.3099,57052718-b5d6-45cb-9385-67dc73dfde54,4153319.06954796,-49416.3295438502
265,45,MUGUMO (ACK) DISP,4720,CENTRAL,KIRINYAGA,GICHUGU,KIRIMA,NJUKU,1:50000 MAPS,4,MISS,-0.432433,37.30495,818ae2ff-e4c7-4050-8ddf-889b3994f609,4152768.03806854,-48138.6783844758
266,19,KAU DISP,755,COAST,TANA RIVER,KIPINI,KILELENGWANI,KAU,SUBLOC CENTROID,4,MOH,-2.473381,40.453161,a4d6bbcf-0f24-488e-9c3f-7ce14c29989d,4503225.28349832,-275421.069394279
267,22,KANDONGO DISP,275,CENTRAL,KIRINYAGA,MWEA,THIBA,NGUKA,HD MAPS,4,MOH,-0.66505,37.3038,4eff007a-766d-41ab-8716-9d888d3d8f70,4152640.02065412,-74034.6898159395
268,46,MUMBUINI DISP,3860,CENTRAL,KIRINYAGA,MWEA,MURINDUKO,MIUU,HD MAPS,4,MOH,-0.67797,37.4634,4f887143-ece5-41eb-a1d1-2baf0d6c4e80,4170406.61138473,-75473.0364244203
269,20,KIARUKUNGU DISP,756,COAST,TANA RIVER,GALORE,KALKACHA,DAYATE,1:50000 MAPS,4,MISS,-1.47434,39.9648,a3793749-4efb-4874-a0af-4028efbf6e06,4448861.18565502,-164140.893106272
270,23,KANGAITA DISP,276,CENTRAL,KIRINYAGA,CENTRAL,KERUGOYA,KAGUYU(CENTRAL),HD MAPS,4,MOH,-0.48951,37.2719,6bf4b1b7-afb1-4cda-aed6-91dd20614b8a,4149088.92889782,-54492.6668676792
271,21,KIPAO DISP,0,COAST,TANA RIVER,GARSEN,KIPAO,KIPAO,SUBLOC CENTROID,4,MOH,-2.422858,40.216583,81319f94-572c-463b-b485-cc4d37b446fe,4476889.54100543,-269791.736735329
272,47,MUNGANGA CPK DISP,289,CENTRAL,KIRINYAGA,NDIA,MWERUA,KITHUMBU,ILRI MKT CENTRES,4,MISS,-0.621,37.254,8d6dbfc0-9cca-41f1-a19e-354b7cd5c9e7,4147096.31001262,-69130.7572950524
273,23,KIPINI HEALTH CENTRE,793,COAST,TANA RIVER,KIPINI,KIPINI,KIPINI,DANIDA,3,MOH,-2.5308,40.541761,637bedd0-03ba-47f9-af38-3dba4df62c5b,4513088.1903826,-281819.023125521
274,48,MURINDUKO DISP,3035,CENTRAL,KIRINYAGA,MWEA,MURINDUKO,MUGAMBA-CIURA,GPS,4,MOH,-0.57294,37.44077,8a601b3e-7f99-42b4-b275-7423c1c93177,4167887.45130808,-63780.4520054554
275,24,KANGARU HEALTH CENTRE,908,CENTRAL,KIRINYAGA,NDIA,MWERUA,MAITHARUI,1:50000 MAPS,3,MOH,-0.582134,37.221234,cc4a6bce-743e-4da6-b20f-1ce382795289,4143448.81557729,-64803.9754019259
276,25,KARAINI C P K DISP,4719,CENTRAL,KIRINYAGA,CENTRAL,KERUGOYA,KAGUYU(CENTRAL),HD MAPS,4,MISS,-0.50243,37.2726,2f1ac229-42d0-4793-8edb-8a905708019b,4149166.85254138,-55930.9685786321
277,24,KORATI DISP,2506,COAST,TANA RIVER,BANGALE,BUWA,KORATI,SUBLOC CENTROID,4,MOH,-0.19679,39.359733,cc058971-b811-4b95-b620-28bdb244813d,4381505.43531921,-21906.6056642151
278,49,MUTHITHI DISP,290,CENTRAL,KIRINYAGA,MWEA,MUTITHI,KABIRIRI,HD MAPS,4,MOH,-0.73269,37.3038,138b325a-bc46-4211-ae6e-488b4eb37d45,4152640.02065412,-81564.9007798584
279,25,MADOGO HEALTH CENTRE,794,COAST,TANA RIVER,MADOGO,MADOGO,MADOGO,DANIDA,3,MOH,-0.47267,39.607311,fc8dd31d-fa5d-4f7b-be46-e7fe2dd77f96,4409065.69221083,-52617.9805508866
280,26,MAJENGO DISP,758,COAST,TANA RIVER,WENJE,GWANO,HARA(TRIVER),ILRI MKT CENTRES,4,MOH,-1.903,40.1135,416fa94e-41e4-4e8f-9ef6-ab96e3e13bd9,4465414.39393598,-211879.950253569
281,27,KARUMANDI DISP,277,CENTRAL,KIRINYAGA,GICHUGU,KARUMANDI,KIARURI,HD MAPS,4,MOH,-0.45683,37.3456,f9c12fa5-11bd-4b35-b3ee-a778b07ce39d,4157293.17536928,-50854.6218012458
282,50,MUTIRA ACK DISP,4718,CENTRAL,KIRINYAGA,NDIA,MUTIRA,KAGUMO(KIRINYAGA),ILRI VILLAGES,4,MISS,-0.48,37.23,b4732e36-75f0-49ca-9b89-33da91b2bd7a,4144424.64223358,-53433.9806182005
283,27,MAKERE DISP,760,COAST,TANA RIVER,GALORE,MAKERE,BUBU,DANIDA,4,MOH,-1.3372,40.000669,eac792f2-0dfd-42ed-95de-ae78767db07d,4452854.10447029,-148869.938303287
284,28,KERUGOYA CATHOLIC DISP,278,CENTRAL,KIRINYAGA,CENTRAL,KERUGOYA,KAGUYU(CENTRAL),GPS,4,MISS,-0.49509,37.27838,ed0580ad-8ff0-4add-9a63-b2c41b8649fc,4149810.27919816,-55113.8525565056
285,28,MAKERE DISP,3817,COAST,TANA RIVER,GALORE,MAKERE,BUBU,1:50000 MAPS,4,MISS,-1.331081,40.009009,01906291-23f2-4656-995f-f7c4dd165ac1,4453782.50902351,-148188.589634218
286,52,MWEA MISS HOSPITAL,302,CENTRAL,KIRINYAGA,MWEA,THIBA,NGUKA,GPS,1,MISS,-0.66137,37.34924,55cf45b3-afd8-4881-a10c-9d6e83ee846c,4157698.37831577,-73625.0066443159
287,29,KERUGOYA CPK DISP,279,CENTRAL,KIRINYAGA,CENTRAL,KERUGOYA,KAGUYU(CENTRAL),GPS,4,MISS,-0.50107,37.27819,61e4f4fc-6e15-40f1-8fe4-3e7cab1b461e,4149789.12849491,-55779.5682658689
288,53,NGIRIAMBU DISP,4728,CENTRAL,KIRINYAGA,GICHUGU,NJUKIINI,NGIRIAMBU,HD MAPS,4,MISS,-0.50167,37.3828,087fd3a9-6fe4-43bc-8366-5b69d4f8b03c,4161434.26042679,-55846.3625176165
289,29,MAREMBO DISP,0,COAST,TANA RIVER,GARSEN,MWINA,SERA,ILRI VILLAGES,4,MOH,-2.12,40.07,9fdfb767-2a44-42c1-ade8-e8747650a2e3,4460571.99608648,-236051.18849489
290,54,NGUKA DISP,292,CENTRAL,KIRINYAGA,MWEA,THIBA,THIBA,HD MAPS,4,MOH,-0.68633,37.316,8aa53950-a339-46a8-b8b7-93fa46382298,4153998.1184418,-76403.7333293381
291,30,KERUGOYA DISTRICT HOSPITAL,301,CENTRAL,KIRINYAGA,CENTRAL,KERUGOYA,KAGUYU(CENTRAL),GPS,1,MOH,-0.50132,37.2805,eae7b9f4-5308-4f37-873b-7e016d7c36d3,4150046.27651864,-55807.3992033537
292,55,NJEGAS DISP,293,CENTRAL,KIRINYAGA,MWEA,MUTITHI,KABIRIRI,HD MAPS,4,MOH,-0.70913,37.2924,c66da3f6-4c15-4fb3-b100-b2e13bfb644b,4151370.97845908,-78942.0059417306
293,31,MARYKNOLL DISP,763,COAST,TANA RIVER,BURA,CHEWELE,WADESA,ILRI VILLAGES,4,MISS,-1.1,39.92,ec9a2db0-21ea-4bb1-8109-8315fa8539af,4443874.07246749,-122458.962902233
294,31,KIAMUTUGU HEALTH CENTRE,280,CENTRAL,KIRINYAGA,GICHUGU,NJUKIINI,NGERWE,HD MAPS,3,MOH,-0.47279,37.4018,ae621eea-c196-48be-b40e-77c3e0e75555,4163549.33075186,-52631.3393444756
295,56,SAGANA H C,304,CENTRAL,KIRINYAGA,NDIA,KIINE SOUTH,SAGANA(KIRINYAGA),HD MAPS,3,MOH,-0.67113,37.2187,17b6c5d0-bafd-4bd4-9173-5e56a835e7d5,4143166.73198762,-74711.5583347131
296,33,MAUMAU SEC SUB-HEALTH CENTRE,761,COAST,TANA RIVER,GALORE,KIARIKUNGU,KIARIKUNGU,DANIDA,3,MOH,-1.50592,40.00832,d85ece45-f559-4fd2-8ab7-5403a166aa16,4453705.80989435,-167657.551935564
297,34,MAZIWA DISP,797,COAST,TANA RIVER,GARSEN,MWINA,SERA,DANIDA,4,MOH,-2.18453,40.135109,e9dc1da0-039b-4bc7-8121-0430a08efaef,4467819.89681254,-243239.7067441
298,57,SAGANA MISS DISP,294,CENTRAL,KIRINYAGA,NDIA,KIINE SOUTH,SAGANA(KIRINYAGA),HD MAPS,4,MISS,-0.65213,37.2308,46476d9a-022a-422a-a183-6a1d49f7ee6e,4144513.69782621,-72596.3469723638
299,35,MBALAMBALA DISP,765,COAST,TANA RIVER,GALORE,CHIFIRI,CHIFIRI,ILRI MKT CENTRES,4,MOH,-1.134399,39.066174,19640de1-50a2-4d94-9b26-086857ef53e8,4348826.59692143,-126288.970191757
300,58,ST ANDREWS MBIRI DISP,3972,CENTRAL,KIRINYAGA,GICHUGU,KABARE,KIRITINI,HD MAPS,4,MISS,-0.51838,37.3258,48df77e9-3f57-4452-acef-b34864dc4472,4155089.04945158,-57706.5849157405
301,59,ST LUKE'S MUNGAGA DISP,0,CENTRAL,KIRINYAGA,MWEA,MUTITHI,RUKANGA(KIRINYAGA),HD MAPS,4,MISS,-0.72281,37.262,ca14daf6-242b-4afb-a815-9afe5ed74bcc,4147986.86593897,-80464.9754843522
302,61,THIBA DISP,295,CENTRAL,KIRINYAGA,MWEA,THIBA,THIBA,HD MAPS,4,MOH,-0.70457,37.3327,0fe71ffe-4a08-4e20-99de-367a03f12b84,4155857.15393805,-78434.3504319612
303,39,MNAZINI DISP,768,COAST,TANA RIVER,GARSEN,NDERA,BAOMO,DANIDA,4,MOH,-1.97791,40.149052,a64a4764-47f0-4a25-bb6b-7a4f77d34abd,4469372.02447267,-220223.678558136
304,62,THUMAITA DISP,4723,CENTRAL,KIRINYAGA,GICHUGU,KARUMANDI,THUMAITA,HD MAPS,4,MISS,-0.43935,37.3585,1c44511c-fe49-4c54-88d6-f32dfa045b6b,4158729.19680052,-48908.6975861358
305,40,MORORO HEALTH CENTRE,3818,COAST,TANA RIVER,MADOGO,MORORO,MORORO,SUBLOC CENTROID,3,MOH,-0.474663,39.632476,bbfd825a-a35a-49dd-85ea-39a77ba9e564,4411867.04719664,-52839.8478776527
306,1,AIC MUNUNGA DISP,389,CENTRAL,MARAGUA,KIGUMO,KINYONA,GACHARAGE(KIGUMO),ILRI MKT CENTRES,4,MISS,-0.739723,36.852509,66df2de6-f09d-4300-912a-8c336b5917ed,4102402.53633454,-82347.8753938032
307,41,MULANJO DISP,769,COAST,TANA RIVER,MADOGO,SAKA,MLANJO,SUBLOC CENTROID,4,MOH,-0.296412,39.429224,187efa84-886f-486f-a8f1-a43f287a3ca9,4389241.13805392,-32996.5800904868
308,2,DON BOSCO MAKUYU DISP,4162,CENTRAL,MARAGUA,MAKUYU,MAKUYU,GAKUNGU,GPS,4,MISS,-0.9064,37.19762,2a18d1ab-8728-4b4b-adf2-dca32477cb18,4140820.11712169,-100904.195286715
309,3,GAICHANJIRU MISSION HOSPITAL,388,CENTRAL,MARAGUA,KANDARA,ITHIRU,GAKUI/KARIMAMWARO,DHMT,1,MISS,-0.852765,36.977445,b6f94595-8fd8-4cc9-bf26-7f73966704c5,4116310.34823628,-94932.8705568624
310,42,NANIGHI DISP,771,COAST,TANA RIVER,BURA,NANIGHI,NANIGHI(TRIVER),DDP,4,MOH,-0.85945,39.851012,b176d17b-0bdb-4219-b38b-e849e6ff5c24,4436194.36343664,-95677.1244328262
311,4,GIKOE DISP,315,CENTRAL,MARAGUA,KIGUMO,KINYONA,KAMUKABI,1:50000 MAPS,4,MOH,-0.761775,36.9013,165423c0-588e-42de-be4e-0c58ffb6541c,4107833.92560983,-84802.9035684506
312,43,NANIGHI NYS DISP,770,COAST,TANA RIVER,BURA,NANIGHI,NANIGHI(TRIVER),DDP,4,MOH,-0.98261,39.888416,f4c652ef-358d-4698-96a0-ffcc11588fa0,4440358.15767027,-109389.007136794
313,5,GITHUMU HEALTH CENTRE,0,CENTRAL,MARAGUA,KANDARA,RUCHU,GITHUMU,ILRI VILLAGES,3,MISS,-0.82,36.9,36f22b32-c0ee-4a04-b7c7-8dbd4f395e91,4107689.2102718,-91285.0987449719
314,44,NGAO SUB-DISTRICT HOSPITAL,796,COAST,TANA RIVER,GARSEN,KIPAO,KIPAO,DANIDA,1,MOH,-2.41221,40.201099,0fc5e923-6996-4820-a665-f739de41a1dc,4475165.87000999,-268605.350874595
315,6,GITURU DISP,320,CENTRAL,MARAGUA,KANDARA,RUCHU,GITURU,1:50000 MAPS,4,MISS,-0.81464,36.8668,72a128e1-0f22-4379-9cff-f165f39e4535,4103993.40317747,-90688.3655610852
316,45,ODA DISP,772,COAST,TANA RIVER,GARSEN,NGAO,GOLBANTI,DANIDA,4,MOH,-2.46857,40.193821,6b43c4cb-8763-4a98-b461-d3124f764722,4474355.68675599,-274885.012893111
317,7,ICHAGAKI HEALTH CENTRE,390,CENTRAL,MARAGUA,MARAGUA,ICHAGAKI,ICHAGAKI,DHMT,3,MISS,-0.816915,37.070665,c97172a0-f348-43ac-80b7-7ad36e242dae,4126687.55116804,-90941.6430745248
318,46,OZI DISP,773,COAST,TANA RIVER,KIPINI,KONE MANSA,ODOLE,DDP,4,MOH,-2.509831,40.42429,044de6c3-4c73-43d5-bfd9-1f198265fca2,4500011.37847963,-279482.504578209
319,47,PUMWANI DISP,775,COAST,TANA RIVER,WENJE,NDURA,HANDAMPIA,DANIDA,4,MOH,-1.6107,40.068272,f87627ca-0779-4b49-9ffe-af036b184472,4460379.63600639,-179325.925158356
320,0,KAGUMOINI DISP,0,CENTRAL,MARAGUA,KANDARA,GAICHANJIRU,KAGUMOINI(MARAGUA),DHMT,4,MOH,-0.891818,37.080265,e3cbbab8-6863-4a66-99c0-a6604a5e9f2a,4127756.21827965,-99280.7345816192
321,50,SEMIKARO DISP,777,COAST,TANA RIVER,KIPINI,CHARA,SEMIKARO,DDP,4,MOH,-2.579019,40.297727,ed6a1c9f-41d8-4072-a596-1e326181cf99,4485922.44976636,-287192.078842897
322,8,KAGUTHI DISP,2710,CENTRAL,MARAGUA,KANDARA,ITHIRU,KAGUTHI,1:50000 MAPS,4,MOH,-0.881234,36.96123,1ee109a7-477f-41d8-ab15-c793eba3c809,4114505.30269307,-98102.3880397225
323,53,TARASA DISP,3609,COAST,TANA RIVER,GARSEN,WACHU-ODA,KURAWA,DDP,4,MISS,-2.581755,40.132089,71e3f279-da93-4956-808d-9ac5324011db,4467483.71195034,-287496.958105254
324,9,KAGWATHI SDA DISP,0,CENTRAL,MARAGUA,MARAGUA,KAHUMBU,MUGUMOINI(MARAG),GPS,4,MISS,-0.85942,37.07856,26f6c28e-a106-4624-a408-ee669fd1c33b,4127566.41854785,-95673.7844723675
325,55,TITILA DISP,783,COAST,TANA RIVER,GALORE,WALDENA,TITILA,SUBLOC CENTROID,4,MISS,-1.722188,39.245279,b0226df2-715a-4f0f-bd23-d77dea5d5ad1,4368764.47431996,-191741.965710803
326,10,KAMAHUHA DISP,328,CENTRAL,MARAGUA,MAKUYU,KAMAHUHA,KAMAHUHA,GPS,4,MOH,-0.84289,37.17814,919eaa91-0c93-4b06-b4c8-b3b4015ca560,4138651.61344104,-93833.4702223909
327,56,UMOJA DISP,784,COAST,TANA RIVER,GALORE,KIARIKUNGU,MATANYA(TRIVER),1:50000 MAPS,4,MISS,-1.41398,39.9946,5cf8df47-ffd7-4394-9a51-7df5e1906f5c,4452178.50648066,-157419.513365666
328,11,KAMBITI DISP,3367,CENTRAL,MARAGUA,MAKUYU,KAMBITI,KAMBITI(MARAGUA),1:50000 MAPS,4,MOH,-0.812354,37.25123,431ca088-3d5b-4c28-a6d5-eb8e16c72a05,4146787.95502312,-90433.8635531574
329,57,WALDENA AIC DISP,786,COAST,TANA RIVER,GALORE,WALDENA,WALDENA,SUBLOC CENTROID,4,MISS,-1.691848,39.059394,37ed4a52-206f-4e93-b9ee-3e7949ed7ba0,4348071.85077385,-188363.032813996
330,58,WALDENA DISP,787,COAST,TANA RIVER,GALORE,WALDENA,WALDENA,DANIDA,4,MOH,-1.61078,39.02536,4dc6bcab-95ed-4b20-b12e-b2119f10faec,4344283.20322419,-179334.834237924
331,0,KAMUNGANGA DISP,4844,CENTRAL,MARAGUA,KIGUMO,KIGUMO,GACHOCHO,DHMT,4,MISS,-0.785806,36.976049,e6efc5a0-0b27-4f29-b290-28ab3a31cdd8,4116154.94622714,-87478.2662475943
332,59,WAYU DISP,788,COAST,TANA RIVER,GALORE,WAYU,WAYU,DANIDA,4,MOH,-1.53075,39.583912,b984c059-b9a7-47b5-a6fb-c895584af2e4,4406460.92744576,-170422.58572526
333,12,KANDARA HEALTH CENTRE,377,CENTRAL,MARAGUA,KANDARA,MURUKA,GATITU/NGUTHIRU,DHMT,3,MOH,-0.897239,37.038699,96b0583f-fd03-4163-99a4-97c6591a8529,4123129.11232534,-99884.2710956962
334,46,MURARANDIA DISP,362,CENTRAL,MURANGA,KAHURO,MURARANDIA,MURARANDIA,1:50000 MAPS,4,MOH,-0.718632,36.8958,ebde444a-2d58-4f18-9dfa-5767c6db111c,4107221.66841047,-79999.845853451
335,0,KANDERENDU DISP,0,CENTRAL,MARAGUA,KIGUMO,KANGARI,MAKOMBOKI,DHMT,4,MOH,-0.781589,36.797738,8ae88dfe-7135-486d-aaaa-5d956382f268,4096305.4565043,-87008.7880380438
336,60,WEMA MISSION DISP,789,COAST,TANA RIVER,GARSEN,SALAMA,WEMA,SUBLOC CENTROID,4,MISS,-2.229695,40.164164,f69db558-88b6-4110-ac29-5321ff5b6fed,4471054.28461753,-248271.184311271
337,47,MURIRANJAS SUB-DISTRICT HOSP.,394,CENTRAL,MURANGA,KAHURO,MUGOIRI,KAHURO,GPS,1,MOH,-0.74315,36.97306,6a3818df-584f-4024-9319-b34b1007f8f6,4115822.21226916,-82729.3992327328
338,61,WENJE CATHOLIC DISP,3608,COAST,TANA RIVER,WENJE,GWANO,WENJE,ILRI MKT CENTRES,4,MISS,-1.786,40.098,e7f39224-052b-4899-82cf-6f75b3a26d73,4463688.94182869,-198848.815650992
339,48,NYAKIANGA DISP,369,CENTRAL,MURANGA,MATHIOYA,NJUMBI,NJUMBI,GPS,4,MOH,-0.63943,36.95746,87c82bb9-460d-45d0-9431-60a1f12b87ed,4114085.62821278,-71182.499633188
340,13,KANGARI DISP,330,CENTRAL,MARAGUA,KIGUMO,KANGARI,KANGARI,1:50000 MAPS,4,MOH,-0.781234,36.851234,4e82a228-3620-4e0c-a346-b800e9e406aa,4102260.60398377,-86969.2659433018
341,14,KARITI DISP,2709,CENTRAL,MARAGUA,KANDARA,KAGUNDUINI,KARITI,GPS,4,MOH,-0.86633,37.01707,300482e6-b8f0-43b5-98b3-dc6a0022123f,4120721.38305897,-96443.0893932438
342,62,WENJE DISP,790,COAST,TANA RIVER,WENJE,GWANO,WENJE,DANIDA,4,MOH,-1.78983,40.109058,159a20b1-25f9-4fcf-b9db-66f97b1262e9,4464919.91275788,-199275.376966476
343,49,RWATHIA DISP,2712,CENTRAL,MURANGA,MATHIOYA,RWATHIA,RWATHIA,DDP,4,MOH,-0.659602,36.9328,23f97250-567d-4cbf-b542-74402de7fe63,4111340.48956982,-73428.1807069393
344,1,CHAARIA MISSION HOSP,3043,EASTERN,CENTRAL MERU,ABOTHUGUCHI EAST,NDURUMA,GAITU,DSA/DFH(MOH)-UNFPA REPORT,1,MISS,0.006292,37.7684,ea7515a2-9e97-4639-89d3-5da1d4da6167,4204359.05607668,700.422237482663
345,50,TUTHU SUB HEALTH CENTRE,386,CENTRAL,MURANGA,KANGEMA,KIRURI,TUTHU,1:50000 MAPS,3,MOH,-0.6667,36.831081,a5f70dd6-ec33-4bf3-bf48-2bfc1cb133a0,4100017.18228582,-74218.3793805526
346,15,KARIUA DISP,333,CENTRAL,MARAGUA,KANDARA,RUCHU,KARIUA,GPS,4,MOH,-0.83194,36.97549,6fe25274-6fa5-4ae5-b33c-a8bed8174511,4116092.71863178,-92614.3915905905
347,2,CIERA CATHOLIC DISP,3589,EASTERN,CENTRAL MERU,MIRIGA MIERU WEST,NTIMA,TUNTU,ILRI MKT CENTRES,4,MISS,0.049779,37.651071,013754ea-5cb0-44bc-9e22-552c7cbe5102,4191298.0515414,5541.37362933337
348,51,WAHUNDURA DISP,3398,CENTRAL,MURANGA,MATHIOYA,KAMACHARIA,KAMUNE,DISTRICT ESTIMATES,4,MOH,-0.591234,36.98123,bc0da571-0e5a-40ed-97ac-d38b5e0a12bc,4116731.69250894,-65817.0358778031
349,3,CONSOLATA NKUBU MISS. HOSPITAL,1182,EASTERN,CENTRAL MERU,NKUENE,NKUENE,KATHERA(CMERU),HD MAPS,1,MISS,-0.068017,37.6622,527de2ab-75ac-42db-9dd4-230696435bb1,4192536.92615443,-7571.6195836712
350,52,WANJENGI DISP,375,CENTRAL,MURANGA,KAHURO,WEITHAGA,WANJENGI,1:50000 MAPS,4,MOH,-0.724185,37.0117,33efa050-ca7f-4f56-b22e-266b5e35d7a5,4120123.59739341,-80618.0519881853
351,16,KINYONA DISP,343,CENTRAL,MARAGUA,KIGUMO,KINYONA,KINYONA,1:50000 MAPS,4,MISS,-0.748188,36.827,ef3e3b41-7428-440b-859b-d13ba23c425d,4099562.88744389,-83290.2743257093
352,6,EX-LEWA DISP,3215,EASTERN,CENTRAL MERU,TIMAU,KISIMA,BUURI,DSA/DFH(MOH)-UNFPA REPORT,4,MOH,0.106337,37.4081,a415793e-3fff-4efe-af9d-960a62de973c,4164250.64354386,11837.3874880974
353,53,WANJERERE DISP,374,CENTRAL,MURANGA,MATHIOYA,RWATHIA,WANJERERE,1:50000 MAPS,4,MOH,-0.651234,36.84123,db123dfd-a199-4c21-9926-a40c52a13843,4101146.96379788,-72496.5982565441
354,8,GAITU PCEA DISP,2519,EASTERN,CENTRAL MERU,ABOTHUGUCHI EAST,NDURUMA,GAITU,DSA/DFH(MOH)-UNFPA REPORT,4,MISS,-0.007638,37.7684,c13a4c79-b599-412f-9277-992ddfd0ae31,4204359.05607668,-850.258273190678
355,17,MAKUYU HEALTH CENTRE,384,CENTRAL,MARAGUA,MAKUYU,MAKUYU,MAKUYU,GPS,3,MOH,-0.89406,37.18661,0b8146e6-80e5-4a19-b143-79cc7d27865b,4139594.48952806,-99530.3431923104
356,54,WEITHAGA DISP,3396,CENTRAL,MURANGA,KAHURO,WEITHAGA,KAHUTI,GPS,4,MISS,-0.71253,36.97671,7d22659e-0d45-467c-80f5-ed3fbf8a17de,4116228.52841055,-79320.5213400622
357,9,GAKOROMONE DISP,2382,EASTERN,CENTRAL MERU,MIRIGA MIERU WEST,MUNICIPALITY,GAKOROMONE,DSA/DFH(MOH)-UNFPA REPORT,4,MOH,0.044284,37.6595,39935aa9-701d-4e18-9786-3557bf639ffd,4192236.36352929,4929.67282110814
358,18,MARAGUA DISTRICT HOSPITAL (RHTC),395,CENTRAL,MARAGUA,MARAGUA,NGINDA,GAKOIGO,GPS,1,MOH,-0.78693,37.12663,ba3b689d-b100-4f8b-9504-1c6887d26220,4132917.54647028,-87603.4011407414
359,64,AIC MUKEU DISP,0,CENTRAL,NYANDARUA,SOUTH KINANGOP,NYAKIO,MUKEU(NYANDA),SUBLOC CENTROID,4,MISS,-0.767321,36.627174,d347feac-1c7b-47f0-a2cf-cb8111d7899e,4077318.35887663,-85420.3364335914
360,10,GANGARA PCEA DISP,2521,EASTERN,CENTRAL MERU,ABOGETA,IGOKI,UPPER CHURE,DSA/DFH(MOH)-UNFPA REPORT,4,MISS,-0.088055,37.6158,b6aa3068-33b2-4863-8a76-4587c0fbaf2d,4187371.70178162,-9802.24162045947
361,1,BAARI DISP,166,CENTRAL,NYANDARUA,NDARAGWA,LESHAU,KARAGOINI,DDP,4,MOH,-0.002742,36.4433,7fd3dbea-a056-4797-ba42-1179df94ff74,4056849.59882652,-305.238043866395
362,19,MARAGUA RIDGE HEALTH CENTRE,348,CENTRAL,MARAGUA,MARAGUA,MARAGUA RIDGE,MARAGUA RIDGE,ILRI VILLAGES,3,MOH,-0.77,37.2,6de806eb-9838-46dc-a479-d137460818ee,4141085.05750978,-85718.588188704
363,2,BAMBOO DISP,3940,CENTRAL,NYANDARUA,SOUTH KINANGOP,MAGUMU,MATURA(S. KINANGOP),DDP,4,MOH,-0.833952,36.5714,c97684ad-02f1-4e60-8d58-078fb3134768,4071109.62559713,-92838.3900759452
364,20,MARANJAU GK PRISON DISP,361,CENTRAL,MARAGUA,MAKUYU,KAMBITI,MARANJAU,DHMT,4,MOH,-0.803599,37.209983,d8b473db-f0e0-47f1-87ed-0b2f1b615b9c,4142196.35998638,-89459.1644965288
365,3,ENGINEER HEALTH CENTRE,398,CENTRAL,NYANDARUA,NORTH KINANGOP,ENGINEER,GATHARA,DDP,3,MOH,-0.610526,36.5919,8b152725-86e4-4836-a09c-ad5678f1bfdd,4073391.67515839,-67964.7296094213
366,21,MARIRA DISP,350,CENTRAL,MARAGUA,KIGUMO,KANGARI,MARIIRA,1:50000 MAPS,4,MISS,-0.79846,36.9348,512f1ae8-4ab7-4f69-b6c8-43aafebd634d,4111563.12855141,-88887.0377209046
367,4,GETA BUSH DISP,399,CENTRAL,NYANDARUA,KIPIPIRI,WANJOHI,WANJOHI,DDP,4,MOH,-0.35786,36.5604,7354437c-05a2-4818-b8e3-3ebb4b764c82,4069885.11119841,-39837.0519863938
368,23,MUGUMOINI DISP,358,CENTRAL,MARAGUA,MARAGUA,KAHUMBU,MUGUMOINI(MARAG),GPS,4,MOH,-0.84768,37.0772,2e73466d-1ebb-4ce5-9992-b145e2c493c6,4127415.02404037,-94366.7486167362
369,5,GETA FOREST DISP,400,CENTRAL,NYANDARUA,NORTH KINANGOP,NORTH KINANGOP,NANDARASI,DDP,4,MOH,-0.486639,36.628,cee4c717-6b96-46fb-896b-08f059d639eb,4077410.30877603,-54173.0570134124
370,25,MURUKA DISP,3414,CENTRAL,MARAGUA,KANDARA,MURUKA,MURUKA,GPS,4,MOH,-0.92799,37.05976,214f6cbf-bc2f-4bcd-a6ab-1f6a9dda5db5,4125473.61212093,-103307.891084199
371,6,HENI DISP,402,CENTRAL,NYANDARUA,SOUTH KINANGOP,MAGUMU,KARATI(NYANDARUA),DDP,4,MOH,-0.801432,36.5669,f899aca0-267c-46a4-a10c-7a47c6e835ca,4070608.68788856,-89217.9114954738
372,26,MUTHERU DISP,363,CENTRAL,MARAGUA,KANDARA,RUCHU,GACHARAGE(KANDARA),1:50000 MAPS,4,MOH,-0.817568,36.951802,3f654d4e-44d3-4b87-ad4a-790788610fab,4113455.78253387,-91014.3420971599
373,23,HOLY FAMILY CATHOLIC DISP,3603,CENTRAL,NYANDARUA,NDARAGWA,KAHUTHA,MURICHO,DDP,4,MISS,-0.030709,36.5467,8bf665da-7987-42de-8de9-60b39238399b,4068360.03417454,-3418.5104064354
374,27,MUTHITHI DISP,364,CENTRAL,MARAGUA,MARAGUA,ICHAGAKI,GIKOMORA,1:50000 MAPS,4,MISS,-0.810626,37.0485,bc0067c8-54db-4ff9-a04f-655daeaf3aa9,4124220.1546546,-90241.4841781664
375,8,KAHEMBE DISP,4506,CENTRAL,NYANDARUA,NDARAGWA,MATHINGIRA,NDIVAI,DDP,4,MOH,0.039534,36.4771,89791e44-9316-46e6-b740-5c6fabd82121,4060612.19761533,4400.9050982385
376,0,KAIMBAGA DISP,0,CENTRAL,NYANDARUA,OL KALOU,RURII,RURII,DHMT,4,MOH,-0.210357,36.419674,fa2cd033-2a25-499b-9010-3236dc215768,4054219.56453703,-23416.8867322211
377,0,MUTHITHI DISP,0,CENTRAL,MARAGUA,MARAGUA,ICHAGAKI,GIKOMORA,DHMT,4,MOH,-0.801467,37.044121,1246ccad-dff7-4d36-bc3f-da00b3e9048f,4123732.68660442,-89221.8080588474
378,9,KARANGATHA HEALTH CENTRE,427,CENTRAL,NYANDARUA,SOUTH KINANGOP,NYAKIO,KARANGATHA,DDP,3,MOH,-0.78127,36.6182,1bf8c6d8-9e9f-472b-a445-df493199ed2d,4076319.37776626,-86973.273817548
379,10,KENTON GITWE DISP,3281,CENTRAL,NYANDARUA,SOUTH KINANGOP,MAGUMU,GITWE(NYANDARUA),DDP,4,MOH,-0.882732,36.5649,4f1ae152-e0d2-4f81-afe4-daf8bb8dbcc8,4070386.04890698,-98269.1643962158
380,28,NAARO DISP,367,CENTRAL,MARAGUA,KANDARA,MURUKA,NAARO,1:50000 MAPS,4,MOH,-0.93433,37.0322,414be025-c4b8-43df-bf8f-fa66b8512e48,4122405.64695467,-104013.749870288
381,11,KIHINGO CATHOLIC DISP,4542,CENTRAL,NYANDARUA,KIPIPIRI,GETA,MAKUMBI,ILRI MKT CENTRES,4,MISS,-0.421866,36.569856,dedd06ae-c7ec-4670-9694-c0c9cd818bee,4070937.74830335,-46962.3326334019
382,29,NGURUWENI DISP,368,CENTRAL,MARAGUA,KANDARA,GAICHANJIRU,NGURWE-INI,GPS,4,MOH,-0.87088,37.0593,abce7f1c-271a-4aba-ac7b-268a1865a7e3,4125422.40515517,-96949.651285947
383,12,KIRIMA DISP,403,CENTRAL,NYANDARUA,NDARAGWA,SHAMATA,KIRIMA(NYANDARUA),DDP,4,MOH,-0.186805,36.4765,a5b8f9d1-afb0-42e5-97ea-ed530163634b,4060545.40592085,-20795.0743194734
384,13,LESHAU PONDO HEALTH CENTRE,428,CENTRAL,NYANDARUA,OL JORO OROK,WERU,GATUMBIRO(NYAND),1:50000 MAPS,3,MOH,-0.092321,36.421123,2623bd8f-6b6c-4b31-b467-831eb77b9a92,4054380.86647919,-10277.1311566188
385,15,MAINA & MWANGI HEALTH CENTRE,429,CENTRAL,NYANDARUA,OL JORO OROK,OL JORO OROK,NYAIROKO,DDP,3,MOH,-0.144529,36.3269,ba46507c-17d6-4542-9c57-420cffbeb21f,4043892.01009818,-16088.9117472686
386,31,RUCHU DISP,372,CENTRAL,MARAGUA,KANDARA,ITHIRU,KIIRI,GPS,4,MISS,-0.89808,37.00208,81c7fc62-0461-45fd-969a-a80bbfac2495,4119052.70389198,-99977.9022784996
387,16,MAINA VILLAGE DISP,3211,CENTRAL,NYANDARUA,NDARAGWA,KIRIITA,SHAURI,1:50000 MAPS,4,MOH,0.062321,36.432321,ecacd6c0-ca56-4d91-8439-d91051d5f751,4055627.42213709,6937.5433537072
388,32,SABASABA (CATHOLIC ) DISP,3641,CENTRAL,MARAGUA,MAKUYU,KAMAHUHA,SABA SABA,ILRI VILLAGES,4,MISS,-0.87,37.15,42aa4e9c-4176-4e96-8564-e56a58dc73b3,4135519.08297012,-96851.678828333
389,17,MANUNGA DISP,404,CENTRAL,NYANDARUA,KIPIPIRI,WANJOHI,WANJOHI,DDP,4,MOH,-0.35786,36.4953,2a66f177-151d-49c9-b949-9e641dbed77f,4062638.21234776,-39837.0519863938
390,18,MAWINGU DISP,0,CENTRAL,NYANDARUA,OL KALOU,OL KALOU,MAWINGO(NYANDA),DDP,4,MOH,-0.34225,36.3223,409f2bec-9d14-4bbf-a790-219ca8f65d20,4043379.94044053,-38099.322297406
391,33,SABASABA SUB HEALTH CENTRE,373,CENTRAL,MARAGUA,MARAGUA,KAHUMBU,KANDANI,GPS,3,MOH,-0.87501,37.1361,5b4321c1-c086-4390-a5da-78d03bcd9617,4133971.74204809,-97409.4541486732
392,19,MIRANGINE HEALTH CENTRE,431,CENTRAL,NYANDARUA,OL KALOU,NDUNDORI,MELANGINE,DDP,3,MOH,-0.206317,36.254,705211a8-07f9-4445-8294-c617de5e54fe,4035776.81921935,-22967.1530162048
393,0,TATA HANAH DISP,0,CENTRAL,MARAGUA,KIGUMO,KINYONA,KINYONA,DHMT,4,MISS,-0.776771,36.892918,58719a8d-f5f5-4ca6-b35f-58e0a43b7a10,4106900.845638,-86472.401132372
394,21,MURUNGARU DISP,405,CENTRAL,NYANDARUA,NORTH KINANGOP,ENGINEER,MURUNGARU,DDP,4,MOH,-0.605662,36.4882,b84bca14-8e33-4ca7-a9c2-453854129006,4061847.84396313,-67423.2411094464
395,1,GACHARAGENI DISP,305,CENTRAL,MURANGA,MATHIOYA,NJUMBI,KIAMUTURI,DDP,4,MOH,-0.61184,36.8478,57f703ff-6caf-4c51-841d-4e837c87b05a,4101878.33285239,-68111.0117428439
396,22,MUTARAKWA DISP,406,CENTRAL,NYANDARUA,NORTH KINANGOP,NORTH KINANGOP,KINJA,DDP,4,MOH,-0.565601,36.6279,b9b70594-eb85-4804-8d0c-9b5567ae88e7,4077399.17682695,-62963.4379356943
397,2,GAKURWE DISP,306,CENTRAL,MURANGA,KIHARU,GATURI,GATHUKIINI,1:50000 MAPS,4,MOH,-0.627688,37.0161,153770fa-9f0b-401b-8efa-ac9131be59aa,4120613.4031529,-69875.3062539093
398,0,NANDARASI DISP,0,CENTRAL,NYANDARUA,NORTH KINANGOP,NORTH KINANGOP,KITIRI,DHMT,4,MOH,-0.525748,36.61817,333955da-a464-4651-9734-d25474249efd,4076316.03818153,-58526.8209737613
399,4,GATANGARA DISP,309,CENTRAL,MURANGA,KANGEMA,KANYENYAINI,KIBUTHA,DHMT,4,MOH,-0.7,36.93,ff1b62ab-29c9-4615-9ca8-70c2db73e671,4111028.7949956,-77925.5821410623
400,24,NDARAGWA HEALTH CENTRE,407,CENTRAL,NYANDARUA,NDARAGWA,KAHUTHA,MURICHO,DDP,3,MOH,-0.040465,36.5441,c3c9d305-8e75-4254-9f04-f7b96cadf51c,4068070.60349848,-4504.54356940885
401,5,GATARA DISP,352,CENTRAL,MURANGA,KANGEMA,KIRURI,ICHICHI,DHMT,4,MOH,-0.72,36.86,b0b113de-90c5-481b-b51f-fbbeff909ac6,4103236.43064007,-80152.1429187612
402,25,NDEMI DISP,408,CENTRAL,NYANDARUA,KIPIPIRI,MALEWA,NDEMI,DDP,4,MOH,-0.338998,36.4413,64f1f719-8580-4d28-bf53-c437383fee43,4056626.95984493,-37737.3049158957
403,6,GATHAITHI DISP,311,CENTRAL,MURANGA,KAHURO,MURARANDIA,GATHAITHI(MURANGA),DDP,4,MOH,-0.740291,36.8923,b3782ac2-c667-4f76-ba30-e2b5fc22c6ea,4106832.05019269,-82411.1101386462
404,28,NEW MAWINGO DISP,409,CENTRAL,NYANDARUA,OL KALOU,OL KALOU,MAWINGO(NYANDA),1:50000 MAPS,4,MOH,-0.312321,36.332321,d2d3737b-6301-42ef-a0ac-1febcf94a144,4044495.47305776,-34767.5868635544
405,8,GATHERU DISP,312,CENTRAL,MURANGA,KAHURO,KAHUHIA,GATHERU,1:50000 MAPS,4,MOH,-0.728944,37.0632,28418dba-ca98-4ce6-bc38-513dc2fba5c9,4125856.55116926,-81147.8640430094
406,29,NEW TUMAINI DISP,0,CENTRAL,NYANDARUA,OL KALOU,TUMAINI,KANJUIRI,1:50000 MAPS,4,MOH,-0.342321,36.292321,5050db4c-5a98-4370-9eea-fe332238a013,4040042.69342604,-38107.2261222898
407,10,GATURI DISP,313,CENTRAL,MURANGA,KIHARU,GATURI,GEITWA/MUGEKA,GPS,4,MISS,-0.64613,37.10059,f1b7138c-9326-4148-9e45-855ef9a8416a,4130018.78693003,-71928.3871592463
408,30,NGANO H C,410,CENTRAL,NYANDARUA,OL JORO OROK,GATANJE,NGANO,DDP,3,MOH,-0.095749,36.2833,8b4ba0fc-3909-4c03-b913-e3348e025f8e,4039038.48029959,-10658.7348850578
409,11,GIKUI DISP,316,CENTRAL,MURANGA,KANGEMA,IYEGO,GIKUI(MURANGA),1:50000 MAPS,4,MOH,-0.676591,37.014,cb523e5b-64ea-404a-86f7-fb89b6f4e1c8,4120379.63222224,-75319.5161209888
410,31,NGORIKA DISP,412,CENTRAL,NYANDARUA,OL KALOU,NGORIKA,NGORIKA,DDP,4,MOH,-0.313633,36.23,7438776f-093a-469b-9704-9d3ab8851d73,4033105.15144031,-34913.6402144909
411,12,GITARO DISP,317,CENTRAL,MURANGA,KAHURO,MUGOIRI,GATUNDU(MURANGA),GPS,4,MOH,-0.74295,37.07393,01e93273-f5f6-4b10-b4d7-d71db3706be7,4127051.00930548,-82707.1334622006
412,32,NJABINI CATHOLIC DISP,413,CENTRAL,NYANDARUA,SOUTH KINANGOP,NJABINI,KIBURU,DDP,4,MISS,-0.734441,36.669,80a07394-a8e9-420f-8c6d-c6bb644e3b8c,4081974.40789855,-81759.8371850377
413,14,GITHANGA DISP,4318,CENTRAL,MURANGA,KIHARU,GATURI,GEITWA/MUGEKA,1:50000 MAPS,4,MISS,-0.62973,37.1018,57e61f75-5826-489f-9759-7aaa82a14443,4130153.48351388,-70102.6343399995
414,33,NJABINI HEALTH CENTRE,432,CENTRAL,NYANDARUA,SOUTH KINANGOP,NJABINI,KIBURU,DDP,3,MOH,-0.721433,36.6657,9a2a98a7-ce4b-4193-907f-71404a4ef00f,4081607.05357894,-80311.6763702412
415,34,NORTH KINANGOP CATHOLIC HOSPITAL,436,CENTRAL,NYANDARUA,NORTH KINANGOP,ENGINEER,GATHARA,HD MAPS,1,MISS,-0.5992,36.5833,c1474da4-f1ff-4860-8eae-7664471e2ad1,4072434.32753757,-66703.8547948762
416,16,GITUGI DISP,319,CENTRAL,MURANGA,MATHIOYA,GITUGI,GITUGI(MURANGA),1:50000 MAPS,4,MOH,-0.655967,37.0255,3182e60b-2584-4c61-bfd7-f1cea74147db,4121659.80636636,-73023.5076897767
417,36,NYAHURURU CATHOLIC MISSION DISP,397,CENTRAL,NYANDARUA,OL JORO OROK,GATIMU,GIKINGI,ILRI MKT CENTRES,4,MISS,0.013654,36.359734,9fe113e8-d98c-4854-a789-ce50e200da2d,4047547.07425888,1519.95634168108
418,17,ICHICHI DISP,322,CENTRAL,MURANGA,KANGEMA,KIRURI,ICHICHI,DDP,4,MOH,-0.704469,36.8387,107716cd-143a-4610-ba57-c7310ae0b01c,4100865.32548618,-78423.1063133706
419,37,NYAHURURU DISTRICT HOSPITAL,437,CENTRAL,NYANDARUA,OL JORO OROK,GATIMU,GIKINGI,DDP,1,MOH,0.023274,36.3418,f8f44c46-7e40-46bb-a4c3-22770b2637c7,4045550.67051099,2590.84989998077
420,18,IRURI DISP,323,CENTRAL,MURANGA,MATHIOYA,KAMACHARIA,THUITA(MURANGA),1:50000 MAPS,4,MOH,-0.596847,37.028378,231a5326-8cbe-4ed3-8e42-c22e432d752c,4121980.18386086,-66441.9057646623
421,38,NYS TUMAINI DISP,3361,CENTRAL,NYANDARUA,OL KALOU,TUMAINI,KANJUIRI,DDP,4,MOH,-0.283714,36.269,f2f356c2-5b15-42fa-b3b7-ab44ef6ae246,4037446.61158125,-31583.0270792408
422,19,KAGUMOINI DISP,325,CENTRAL,MURANGA,MATHIOYA,KIRU,KAGUMOINI(MURANGA),1:50000 MAPS,4,MOH,-0.620072,36.9821,039cb925-7ace-4730-a6d0-d34e12eaf803,4116828.54046593,-69027.4467486234
423,39,OL JORO OROK CATHOLIC DISP,3634,CENTRAL,NYANDARUA,OL JORO OROK,OL JORO OROK,LESIRKO,DDP,4,MISS,-0.099001,36.3535,56caf7b5-e89c-4b31-8ed2-23a2f13d93d6,4046853.10855328,-11020.7463919706
424,0,KAHUHIA ACK DISP,0,CENTRAL,MURANGA,KAHURO,KAHUHIA,KIROGO,DHMT,4,MISS,-0.71,37.04,e34111d0-a0c0-4883-aaf8-2fa103d7dd0a,4123273.93898286,-79038.8613259612
425,40,OL'BOROSAT DISP,414,CENTRAL,NYANDARUA,OL JORO OROK,GATANJE,GATHANJE,DDP,4,MOH,-0.046969,36.3483,f6d9a54d-90ad-4151-a74c-26db144e7155,4046274.24720115,-5228.56574867262
426,21,KAIRO DISP,327,CENTRAL,MURANGA,MATHIOYA,KIRU,KAIRO,1:50000 MAPS,4,MOH,-0.610663,36.8629,f49214e0-8d60-4e7a-bcf1-eb6637f6a048,4103559.25716337,-67979.9812457104
427,41,OLD MAWINGO DISP,415,CENTRAL,NYANDARUA,KIPIPIRI,KIPIPIRI,MIHARATI,DDP,4,MOH,-0.405989,36.5213,3b09a03b-5002-413b-91ce-6f41755d188d,4065532.51910839,-45194.8669489075
428,22,KAMBIRWA DISP,329,CENTRAL,MURANGA,KIHARU,GIKINDU,KAMBIRWA,1:50000 MAPS,4,MOH,-0.741239,37.1921,7a206cb0-b40f-41ea-b06d-9858753d1452,4140205.63353251,-82516.6498364649
429,42,OL'KALOU DISTRICT HOSPITAL,438,CENTRAL,NYANDARUA,OL KALOU,OL KALOU,MUNYEKI,HD MAPS,1,MOH,-0.2707,36.3735,6815573a-d5f4-46aa-bdda-f5d4572c844f,4049079.49836914,-30134.2982671004
430,68,PASSENGA CATHOLIC DISP,4546,CENTRAL,NYANDARUA,OL KALOU,RURII,PASSENGA,SUBLOC CENTROID,4,MISS,-0.219369,36.32708,11e01586-2f24-4e2f-8789-5acb12b4a24d,4043912.04760652,-24420.1050384101
431,23,KANGEMA HEALTH CENTRE,378,CENTRAL,MURANGA,KANGEMA,MUGURU,GAKIRA,GPS,3,MOH,-0.68709,36.97065,ff8d3b47-7677-4cd6-8dfc-6f9898ff20d4,4115553.93229634,-76488.3422192464
432,43,PESI DISP,416,CENTRAL,NYANDARUA,NDARAGWA,SHAMATA,PESI(NYANDARUA),DDP,4,MOH,-0.123716,36.5792,b7282fbd-4c96-434b-ba84-6450209a0c80,4071977.91762532,-13772.0128246753
433,24,KANJAMA DISP,2713,CENTRAL,MURANGA,MATHIOYA,KIRU,KANJAMA,1:50000 MAPS,4,MOH,-0.619082,36.9522,ce662048-b233-4930-8bce-0de2a0570a79,4113500.08769121,-68917.2340089232
434,44,SHAMATA DISP,417,CENTRAL,NYANDARUA,NATIONAL PARK,NATIONAL PARK,MT. KENYA N. PARK,DDP,4,MOH,-0.248593,36.5649,81e914c7-d633-4796-ad84-5f5702ead388,4070386.04890698,-27673.3329994963
435,25,KANYENYAINI DISP,331,CENTRAL,MURANGA,KANGEMA,KANYENYAINI,KANYENYAINI,DDP,4,MOH,-0.686016,36.8829,e606bc1d-8c11-436a-9f9d-1f546169d67a,4105785.64697924,-76368.7765024345
436,45,SILIBWET DISP,418,CENTRAL,NYANDARUA,OL JORO OROK,GATANJE,SILIBWET(NYANDA),DDP,4,MOH,-0.043717,36.2833,a38f9bdc-8345-47af-9155-5e10769ef8e0,4039038.48029959,-4866.55465120529
437,11,GATIA PCEA DISP,396,EASTERN,CENTRAL MERU,NKUENE,MIKUMBUNE,KIGANE,DSA/DFH(MOH)-UNFPA REPORT,4,MISS,-0.078557,37.6506,55bcc980-4ac2-4e9d-ba3b-0b15ef302488,4191245.62006123,-8744.92797810824
438,26,KARAHA DISP,4594,CENTRAL,MURANGA,KIHARU,MBIRI,MUCHUNGUCHA,DISTRICT ESTIMATES,4,MISS,-0.751234,37.12342,44549aca-1c14-4735-bbdf-5a64f6da057f,4132560.21090484,-83629.3825245412
439,12,GATIMBI DISP,1077,EASTERN,CENTRAL MERU,ABOTHUGUCHI CENTRAL,MARIENE,MUGAMBONE,DSA/DFH(MOH)-UNFPA REPORT,4,MOH,-0.000673,37.6417,7d9734d5-5b9c-492f-93f9-f3cd2550009d,4190254.87659317,-74.9180173002073
440,20,ST MATTHEWS AND SARAH CATHOLIC DISP,4356,CENTRAL,NYANDARUA,OL KALOU,NDUNDORI,MELANGINE,SUBLOC CENTROID,4,MISS,-0.217278,36.250195,8b72052f-0fa1-4665-bf80-c4b640bc0a4e,4035353.24855688,-24187.334293276
441,13,GATUNTUNE PCEA DISP,2523,EASTERN,CENTRAL MERU,IGOJI,MWERU,MWERU(CMERU),DSA/DFH(MOH)-UNFPA REPORT,4,MISS,-0.153908,37.7171,be99924d-fed1-487c-be31-808d42dc4df7,4198648.36619899,-17132.9807933624
442,14,GATURI PCEA DISP,1079,EASTERN,CENTRAL MERU,ABOTHUGUCHI EAST,MWANGATHIA,IGANE,ILRI VILLAGES,4,MISS,-0.048,37.715,eb6e11a2-27dd-4ce6-9fa8-5729227222b1,4198414.59526832,-5343.33618309881
443,0,ST. MARY'S DISP,0,CENTRAL,NYANDARUA,OL KALOU,NGORIKA,NGORIKA,DHMT,4,MISS,-0.303998,36.239229,2969090c-7401-4011-994b-9b36403c7c27,4034132.51902084,-33841.0613400265
444,15,GIAKI DISP,1081,EASTERN,CENTRAL MERU,MIRIGA MIERU EAST,GIAKI,KAMBEREU,DSA/DFH(MOH)-UNFPA REPORT,4,MOH,0.03352,37.7684,544ec284-2bf9-42a1-8efe-a19ee9174e87,4204359.05607668,3731.42954425324
445,27,KIAMARA DISP,334,CENTRAL,MURANGA,KANGEMA,IYEGO,GACHARAIGU,1:50000 MAPS,4,MOH,-0.697581,37.0636,d8b57588-b12f-4621-85f2-56912cd198e1,4125901.07896558,-77656.2802641182
446,48,SUBUKU DISP,420,CENTRAL,NYANDARUA,NDARAGWA,KANYAGIA,KANYAGIA,DDP,4,MOH,-0.0977,36.4621,3a7d664d-1c06-49a7-a474-5a99799969d9,4058942.40525343,-10875.9195210833
447,16,GITHONGO SUB DISTRICT HOSPITAL,1167,EASTERN,CENTRAL MERU,ABOTHUGUCHI WEST,GITHONGO EAST,KARUGWA,DSA/DFH(MOH)-UNFPA REPORT,1,MOH,-0.005739,37.6215,d2364bae-2f4e-4da7-86d7-5bea63c0d455,4188006.22287914,-638.86255872514
448,28,KIANGOCHI DISP,335,CENTRAL,MURANGA,KIHARU,MBIRI,MUCHUNGUCHA,1:50000 MAPS,4,MOH,-0.760811,37.118469,41cb5703-367d-4217-ad96-5b1014d1356d,4132009.06810592,-84695.5821058624
449,17,GITORO (CONSOLATA) DISP,3083,EASTERN,CENTRAL MERU,FOREST,IMENTI FOREST,IMENTI FOREST,DSA/DFH(MOH)-UNFPA REPORT,4,MISS,0.06518,37.612,857c48a2-ad55-4dd8-9cab-171ea37edf1b,4186948.68771661,7255.8059749239
450,49,TUMAINI DISP,423,CENTRAL,NYANDARUA,OL KALOU,TUMAINI,KANJUIRI,DDP,4,MOH,-0.271357,36.2638,b316332c-94c0-47b5-b586-1601ce9562df,4036867.75022912,-30207.4359908186
451,5,IGADENE MISSION DISP,2654,EASTERN,CENTRAL MERU,ABOGETA,ABOGETA,UPPER KIUNGONE,DSA/DFH(MOH)-UNFPA REPORT,4,MISS,-0.115971,37.6132,35a04eab-e070-4bf8-89b9-6b6b75b553c9,4187082.27110556,-12909.8414818015
452,29,KIANGUNYI MISSION DISP,336,CENTRAL,MURANGA,KANGEMA,MUGURU,WATUHA,GPS,4,MISS,-0.69231,36.98927,d02a9722-9bb0-40c0-9f54-9ee758ae4b04,4117626.70121491,-77069.4720643984
453,19,IGOJI MISSION HOSPITAL,1184,EASTERN,CENTRAL MERU,IGOJI,IGOJI,KUIRI,DSA/DFH(MOH)-UNFPA REPORT,1,MISS,-0.193799,37.6652,bf570879-dd8b-4055-983c-4b3e331526ab,4192870.88462681,-21573.647133044
454,50,TURASHA DISP,424,CENTRAL,NYANDARUA,KIPIPIRI,LERESHWA,KIRIKO(NYANDARUA),DDP,4,MOH,-0.447615,36.4426,c70a9bc6-1b55-4d6d-b11c-de12b486fc05,4056771.67518295,-49828.7807398251
455,30,KIBUTHA DISP,337,CENTRAL,MURANGA,KANGEMA,KANYENYAINI,KIBUTHA,1:50000 MAPS,4,MOH,-0.698198,36.91892,6c2f4c3b-e869-4003-9d2e-3d68c69cb466,4109795.37503761,-77724.9694853702
456,20,IRUMA CATHOLIC DISP,2396,EASTERN,CENTRAL MERU,IGOJI,IGOJI,GIKUI(CMERU),ILRI VILLAGES,4,MISS,-0.2,37.68,b3676512-23e5-4285-bd80-5a74bf4537fe,4194518.41309056,-22263.9433719272
457,51,URUKU DISP,425,CENTRAL,NYANDARUA,NDARAGWA,KAHUTHA,URUKU(NYANDARUA),DDP,4,MOH,0.03238,36.5779,fe97884d-7bc9-4230-900d-593d8c499bfa,4071833.20228729,3604.52530376005
458,21,ITHIMBARI DISP,2525,EASTERN,CENTRAL MERU,ABOGETA,IGOKI,UPPER CHURE,DSA/DFH(MOH)-UNFPA REPORT,4,MOH,-0.079823,37.5746,b54c4df0-57f2-4147-9a63-1c82292acc15,4182785.33876094,-8885.8585880682
459,31,KIGETUINI DISP,338,CENTRAL,MURANGA,KIHARU,GATURI,KIMATHI(MURANGA),1:50000 MAPS,4,MOH,-0.673212,37.162341,6a3dd637-72f0-46e9-8b4d-ad90e141ab3b,4136892.876806,-74943.3414645764
460,52,WANJOHI HEALTH CENTRE,434,CENTRAL,NYANDARUA,KIPIPIRI,WANJOHI,GATONDO,DDP,3,MOH,-0.307129,36.5122,c6373b25-21d2-4a50-9e39-a32f991ff35c,4064519.51174217,-34189.6076223807
461,82,KAMBAKIA CHRISTIAN CENTRE DISP,3553,EASTERN,CENTRAL MERU,MIRIGA MIERU WEST,MUNICIPALITY,KAAGA2,SUBLOC CENTROID,4,NGO,0.06,37.65,a2f7e01e-fd8c-45c6-b6eb-21f4d11ba69f,4191178.82836675,6679.17066835716
462,22,KANYAKINE HEALTH CENTRE,1098,EASTERN,CENTRAL MERU,ABOGETA,KITHANGARI,NTHARENE,DSA/DFH(MOH)-UNFPA REPORT,3,MOH,-0.120981,37.6702,40f22074-c056-4376-8a79-0eaf3104fd3f,4193427.48208078,-13467.5533231827
463,32,KIHOYA DISP,340,CENTRAL,MURANGA,MATHIOYA,RWATHIA,KIHOYA,1:50000 MAPS,4,MOH,-0.648649,36.88874,dba4d63d-526a-40ff-b49f-db610bcbdf4f,4106435.75280547,-72208.818857628
464,23,KAONGO DISP,1099,EASTERN,CENTRAL MERU,ABOTHUGUCHI EAST,NDURUMA,KAONGO,DSA/DFH(MOH)-UNFPA REPORT,4,MOH,-0.032333,37.7038,6b304a7e-4c9b-4f7a-bf9b-2ff663e841cd,4197167.81697143,-3599.29328684672
465,53,WERU DISP,426,CENTRAL,NYANDARUA,SOUTH KINANGOP,NJABINI,MURUAKI,DDP,4,MOH,-0.681759,36.5747,3c683e7e-2a9f-41ea-859f-4fee2b786ea1,4071476.97991675,-75894.8556706193
466,25,KARIA PCEA DISP,1101,EASTERN,CENTRAL MERU,IGOJI,KARIA,KARIA(CMERU),DSA/DFH(MOH)-UNFPA REPORT,4,MISS,-0.203297,37.6284,040754ee-440f-4419-b439-6a7aeaa13df8,4188774.32736562,-22630.966006166
467,0,KIHURO ACK DISP,0,CENTRAL,MURANGA,MATHIOYA,KIRU,KAGUMOINI(MURANGA),DHMT,4,MISS,-0.61,36.97,7dcdc674-f0f7-44ef-a8da-5a2628b6f9e3,4115481.57462733,-67906.1722357514
468,26,KATHERA PCEA DISP,1105,EASTERN,CENTRAL MERU,NKUENE,NKUENE,KATHERA(CMERU),DSA/DFH(MOH)-UNFPA REPORT,4,MISS,-0.054495,37.5879,e11ff9c7-1722-457d-963a-44b117494212,4184265.88798849,-6066.35656540556
469,1,AGUTHI DISP,440,CENTRAL,NYERI,TETU,AGUTHI,GITITU,1:50000 MAPS,4,MOH,-0.501352,37.020721,be81feba-df7f-45c9-b398-bae18497ffbf,4121127.81051985,-55810.9615634269
470,34,KIRIA DISP,344,CENTRAL,MURANGA,KAHURO,MUGOIRI,KIRIA(MURANGA),1:50000 MAPS,4,MOH,-0.767812,37.0672,0fdaf492-2bcc-422c-b2e0-faf49647b5dd,4126301.82913244,-85474.999208607
471,27,KATHIGU PCEA DISP,1106,EASTERN,CENTRAL MERU,IGOJI,KIANJOGU,MIRURIIRI,DSA/DFH(MOH)-UNFPA REPORT,4,MISS,-0.155807,37.6873,f646f2bc-7058-4657-b5fd-f5cdf59586ac,4195331.04537334,-17344.3772785095
472,2,AMBONI DISP,441,CENTRAL,NYERI,KIENI WEST,MWEIGA,AMBONI,1:50000 MAPS,4,MOH,-0.331019,36.874537,b40b4f70-c7c7-4ce3-82f8-9acb0cc51899,4104854.68207773,-36849.0715149769
473,3,BELLEVUE SUB HEALTH CENTRE,442,CENTRAL,NYERI,KIENI WEST,GATARAKWA,KAMARIKI,1:50000 MAPS,4,MOH,-0.221133,36.781122,7e0b370f-5f62-462e-b415-e1726026a765,4094455.77184528,-24616.4740710598
474,28,KATHITHI DISP,1107,EASTERN,CENTRAL MERU,MIRIGA MIERU EAST,MUNITHU,KIRIMENE,DSA/DFH(MOH)-UNFPA REPORT,4,MOH,0.069612,37.7025,08db1ae8-d04f-48f6-9bab-9d2e5fbf708a,4197023.1016334,7749.1742995661
475,35,KIRIAINI DISP,345,CENTRAL,MURANGA,MATHIOYA,KIRU,KIRIAINI(MURANGA),GPS,4,MOH,-0.59941,36.95155,0f7487b4-da4e-47a8-a381-146f82ac6dc2,4113427.73002219,-66727.2331668303
476,29,KIBIRICHIA DISP,0,EASTERN,CENTRAL MERU,ABOTHUGUCHI WEST,KIAMIOGO,MBURUGITI,ILRI VILLAGES,4,MISS,0.1,37.52,657157fe-8a0e-4c5c-9abc-84c4e2da454e,4176707.29456363,11131.9547309754
477,4,BURGURET DISP,0,CENTRAL,NYERI,KIENI EAST,GAKAWA,GITHIMA(NYERI),1:50000 MAPS,4,MOH,-0.111224,37,143a7dab-8c86-4da4-920a-2933b6f81bfa,4118821.15935113,-12381.4068202418
478,30,KIBIRICHIA HEALTH CENTRE,1112,EASTERN,CENTRAL MERU,ABOTHUGUCHI WEST,KIAMIOGO,KIAMIOGO,DSA/DFH(MOH)-UNFPA REPORT,3,MOH,0.125967,37.5037,060379c1-165c-4cd4-8643-41a03e4e1b6b,4174892.7868637,14022.5935933065
479,36,KIRIAINI MISS. HOSPITAL,2379,CENTRAL,MURANGA,MATHIOYA,KIRU,KIRIAINI(MURANGA),DDP,1,MISS,-0.597467,36.9482,745f9ed1-0e6a-41f2-88f1-a25c5986dc4d,4113054.80972804,-66510.9275976828
480,31,KIBURINE DISP,3441,EASTERN,CENTRAL MERU,MIRIGA MIERU EAST,KIBURINE,MBIRIKENE,DSA/DFH(MOH)-UNFPA REPORT,4,MOH,-0.001939,37.8887,53aaef0d-284a-421c-9cef-414308dc8334,4217750.79081911,-215.848492682109
481,5,CHEHE DISP,444,CENTRAL,NYERI,MATHIRA,IRIA-INI,CHEHE,1:50000 MAPS,4,MOH,-0.440991,37.173874,eb038bd1-77d6-4105-9480-93747ee73d4c,4138176.72449332,-49091.3782613817
482,37,KIROGO HEALTH CENTRE,381,CENTRAL,MURANGA,KAHURO,KAHUHIA,KIROGO,GPS,3,MOH,-0.71178,37.02947,27feb500-38e3-4675-95e7-88c5df9eb142,4122101.74474481,-79237.0252723467
483,32,KINORO DISP,3217,EASTERN,CENTRAL MERU,IGOJI,KINORO,KINORO,DSA/DFH(MOH)-UNFPA REPORT,4,MOH,-0.176703,37.6126,81bb5515-9b13-403d-930f-76c546fc44af,4187015.47941109,-19670.5191638952
484,6,CONSOLATA HOSPITAL MATHARI,496,CENTRAL,NYERI,MUNICIPALITY,MUKARO,MATHARI,GPS,1,MISS,-0.41129,36.91898,5c517770-45d8-4c3a-8cc0-81cf03ba49a5,4109802.05420705,-45784.9865785299
485,33,KIONYO DISP,1122,EASTERN,CENTRAL MERU,ABOGETA,ABOGETA,UPPER KIUNGONE,DSA/DFH(MOH)-UNFPA REPORT,4,MOH,-0.124147,37.5841,572ec8d8-3e7c-4b63-b3a4-f618bb952477,4183842.87392348,-13819.9916374444
486,0,MIHUTI DISP,0,CENTRAL,MURANGA,MATHIOYA,GITUGI,MIHUTI(MURANGA),DHMT,4,MISS,-0.66,36.96,334e07ad-dd2f-4dc3-9fa2-c80f40f6088c,4114368.3797194,-73472.4888021229
487,35,KIRONGINE PCEA DISP,1124,EASTERN,CENTRAL MERU,ABOGETA,IGOKI,KOTHINE,DSA/DFH(MOH)-UNFPA REPORT,4,MISS,-0.094387,37.6822,8fa2f432-8a99-40a5-b4c0-960d176c0daf,4194763.3159703,-10507.1175298809
488,7,EMBARINGO DISP,3159,CENTRAL,NYERI,KIENI WEST,GATARAKWA,EMBARINGO,1:50000 MAPS,4,MOH,-0.281144,36.682213,979e052c-4d57-4a6e-990a-4dc40a954547,4083445.27233041,-31296.9325120946
489,37,KIRUA COTTAGE HOSPITAL,2399,EASTERN,CENTRAL MERU,BUURI,KIIRUA,KIIRUA,DSA/DFH(MOH)-UNFPA REPORT,1,MISS,0.130399,37.5638,ed6a6e48-68bf-492a-af0d-d4a12a7c08a4,4181583.08826038,14515.9628113139
490,8,ENDARASHA HEALTH CENTRE,509,CENTRAL,NYERI,KIENI WEST,ENDARASHA,ENDARASHA,1:50000 MAPS,3,MOH,-0.307348,36.7948,7916fe5f-c9aa-4026-aa55-eb87cc96dfc5,4095978.39984035,-34213.9869413671
491,42,MUGEKA HEALTH CENTRE,354,CENTRAL,MURANGA,KIHARU,GATURI,GEITWA/MUGEKA,GPS,3,MOH,-0.63969,37.09145,cbc1fa0e-0f6a-4cc0-90ca-d543db196d0a,4129001.32678417,-71211.4445040407
492,38,KIRUA DISP,1117,EASTERN,CENTRAL MERU,BUURI,KIIRUA,KIIRUA,DSA/DFH(MOH)-UNFPA REPORT,4,MOH,0.143063,37.5607,3cf28ad7-9a82-40a3-91b7-cf859fa01257,4181237.99783892,15925.7168598134
493,39,KITHATU CATHOLIC DISP,3555,EASTERN,CENTRAL MERU,ABOGETA,KIRINGA,KITHATU,SUBLOC CENTROID,4,MISS,-0.144378,37.740945,c16c8c36-41f9-42a7-a091-fe302df81ac3,4201302.77945695,-16072.1024507344
494,43,MUGOIRI  MISSION DISP,356,CENTRAL,MURANGA,KAHURO,MUGOIRI,KAHURO,GPS,4,MISS,-0.74839,37.02561,625917de-1bb9-4386-9ebf-683b61d69225,4121672.05151034,-83312.7627807098
495,40,MACHAKA CATHOLIC DISP,2894,EASTERN,CENTRAL MERU,ABOTHUGUCHI WEST,KIAMIOGO,KIAMIOGO,DSA/DFH(MOH)-UNFPA REPORT,4,MISS,0.112669,37.5113,be7c70d5-9831-46f6-bb8a-1ca5993f9537,4175738.81499373,12542.2637914863
496,9,GACHIKA DISP,3158,CENTRAL,NYERI,MUNICIPALITY,KIGANJO,GACHIKA(NYERI),1:50000 MAPS,4,MOH,-0.429054,37.026577,1e147141-95b7-4f76-ac9c-1a2a40e8a8a5,4121779.69745794,-47762.519195066
497,41,MAKANDUNE PCEA DISP,1127,EASTERN,CENTRAL MERU,ABOTHUGUCHI EAST,KIAGU,MAKANDUNE,DSA/DFH(MOH)-UNFPA REPORT,4,MISS,-0.079823,37.8216,c4e03ead-ae65-4409-8c5b-f92fcc8afba0,4210281.25298688,-8885.8585880682
498,43,MARIE STOPES DISP,3671,EASTERN,CENTRAL MERU,FOREST,IMENTI FOREST,IMENTI FOREST,DSA/DFH(MOH)-UNFPA REPORT,4,NGO,0.073411,37.6291,9d6368a4-865f-470f-87af-4ec688eeda10,4188852.25100918,8172.07737455731
499,45,MURANGA DISTRICT HOSPITAL,393,CENTRAL,MURANGA,KIHARU,TOWNSHIP,KARURI(MURANGA),GPS,1,MOH,-0.71587,37.15985,a8068d92-c300-4c35-91c8-765455384ecb,4136615.57995443,-79692.35732688
500,10,GAKAWA DISP,3364,CENTRAL,NYERI,KIENI EAST,GAKAWA,KAHURURA,1:50000 MAPS,4,MOH,-0.041123,37.08,66e538c3-daf9-4138-a286-9c7b1958d8da,4127726.71861459,-4577.79181292194
501,46,MERU DISTRICT HOSPITAL,1181,EASTERN,CENTRAL MERU,MIRIGA MIERU WEST,MUNICIPALITY,KAAGA2,HD MAPS,1,MOH,0.060928,37.6641,298eb22a-923b-464e-b4cd-a3098a48ba37,4192748.43318694,6782.47521333614
502,48,MINUGU DISP,1138,EASTERN,CENTRAL MERU,BUURI,RWARERA,KIRWIRO,1:50000 MAPS,4,MISS,0.225676,37.62112,ee97debc-70b8-4a50-8ea3-8463d06d91fd,4187963.92147265,25122.2023622442
503,11,GATEI DISP,445,CENTRAL,NYERI,MATHIRA,MAGUTU,GATEI(NYERI),1:50000 MAPS,4,MOH,-0.399909,37.148198,98ffd12d-5dba-4c3a-8421-23427b5b8c80,4135318.48524771,-44518.0277063717
504,49,MITUNGUU DISP,3790,EASTERN,CENTRAL MERU,NKUENE,MITUNGUU,KIRINDENE,1:50000 MAPS,4,MISS,-0.101802,37.779276,21126af4-fe04-4b14-b620-cdf7f8f54e2a,4205569.76685855,-11332.5527644473
505,12,GATHIURU DISP,446,CENTRAL,NYERI,KIENI EAST,GAKAWA,GATHIURU,1:50000 MAPS,4,MOH,-0.07432,37.031124,7257678f-c254-42eb-afd3-28a7883a9e32,4122285.86718258,-8273.26687577112
506,50,MKUMBUNE SUB DISTRICT HOSPITAL,1137,EASTERN,CENTRAL MERU,NKUENE,MIKUMBUNE,MIKUMBUNE,DSA/DFH(MOH)-UNFPA REPORT,3,MOH,-0.072225,37.6006,69393a1d-43bd-44e2-98c1-94e17cc0b241,4185679.64552157,-8040.0523518426
507,53,MUJWA CATHOLIC DISP,1142,EASTERN,CENTRAL MERU,ABOTHUGUCHI EAST,MWANGATHIA,GATUUNE,DSA/DFH(MOH)-UNFPA REPORT,4,MISS,-0.060827,37.6987,632dd38b-718f-44f7-855b-609e7129375c,4196600.08756839,-6771.23193841035
508,13,GATHUTHI DISP,3809,CENTRAL,NYERI,TETU,THEGENGE,GATHUTHI,DISTRICT ESTIMATES,4,MISS,-0.48214,36.90123,ad2d7ce5-eeab-4c19-9639-e8e17b70500d,4107826.13324548,-53672.2127258
509,56,MWOROGA MISSION DISP,1150,EASTERN,CENTRAL MERU,IGOJI,MWERU,MWERU(CMERU),DSA/DFH(MOH)-UNFPA REPORT,4,MISS,-0.160873,37.7095,539902d2-094e-4afb-86aa-809779cc665a,4197802.33806895,-17908.3239725456
510,57,NAARI DISP,1151,EASTERN,CENTRAL MERU,BUURI,NAARI,MURUGUMA,DSA/DFH(MOH)-UNFPA REPORT,4,MOH,0.091141,37.5657,0a60c732-2588-4f6c-bfab-80467817dfed,4181794.59529288,10145.7739891391
511,14,GATITU DISP,447,CENTRAL,NYERI,TETU,GAAKI,MUTATHIINI,1:50000 MAPS,4,MOH,-0.457437,36.9919,7ac5df2e-63cd-47dd-816a-c3a60390e336,4117919.4714757,-50922.1948828696
512,15,GATONDO DISP,4578,CENTRAL,NYERI,MATHIRA,IRIA-INI,KIAMWANGI,1:50000 MAPS,4,MOH,-0.43333,37.16667,63ac627d-3ffb-464f-b6d6-e09417596746,4137374.77888164,-48238.5348176665
513,58,NGARENDARE DISP,2743,EASTERN,CENTRAL MERU,TIMAU,KISIMA,NGARE NDARE,1:50000 MAPS,4,MISS,0.202321,37.392321,328b981d-28ba-4ff0-90f5-e8ed87be9596,4162494.13329863,22522.3175025113
514,16,GIATHENGE DISP,3561,CENTRAL,NYERI,OTHAYA,KARIMA,GURA,1:50000 MAPS,4,MOH,-0.532145,36.975528,f3ab747a-71dd-457f-bf18-07f209e96bbb,4116096.94877244,-59238.9621034183
515,59,NKABUNE MISSION DISP,1154,EASTERN,CENTRAL MERU,MIRIGA MIERU EAST,MULATHANKARI,NKABUNE,DSA/DFH(MOH)-UNFPA REPORT,4,MISS,0.038585,37.6911,3a0af630-b9ef-47e1-a9cd-21d6d8605286,4195754.05943836,4295.26287692586
516,17,GICHICHI SUB HEALTH CENTRE,489,CENTRAL,NYERI,OTHAYA,CHINGA,GICHICHE(NYERI),GPS,3,MOH,-0.57562,36.92429,9aaa0b04-1701-428e-98b5-213f6447ebbb,4110393.16070317,-64078.8032271738
517,61,NKACII DISP,2745,EASTERN,CENTRAL MERU,ABOGETA,KIRINGA,KITHATU,1:50000 MAPS,4,MOH,-0.132542,37.702131,0a816d70-5c08-4d95-bb09-a8c014cea49e,4196982.0247413,-14754.5211081081
518,63,NKANDO DISP,4453,EASTERN,CENTRAL MERU,NKUENE,NKUENE,URUKU(CMERU),1:50000 MAPS,4,MOH,-0.041232,37.592321,928e2f07-ac57-4d0c-95e4-e791ed21d8d4,4184758.03145729,-4589.92564055347
519,18,GICHIRA HEALTH CENTRE,449,CENTRAL,NYERI,TETU,AGUTHI,GICHIRA,1:50000 MAPS,3,MOH,-0.471847,37.019369,ca3b58c8-5a55-45f3-804c-284b5ca5501f,4120977.3065683,-52526.3614977654
520,160,NKUBU DISP,3718,EASTERN,CENTRAL MERU,NKUENE,NKUENE,KATHERA(CMERU),ILRI MKT CENTRES,4,MOH,-0.062288,37.663113,04e040bd-8c86-49b2-90a0-f60ce6936f69,4192638.56084953,-6933.86980833147
521,64,NKUNJUMO CATHOLIC DISP,2397,EASTERN,CENTRAL MERU,IGOJI,KARIA,NKUNJUMU,SUBLOC CENTROID,4,MISS,-0.177278,37.585537,21bd0256-e9c5-4121-94f1-783d681e3edf,4184002.84003175,-19734.5281764947
522,19,GIKONDI DISP,490,CENTRAL,NYERI,MUKURWE-INI,GIKONDI,KIIRUNGI,DISTRICT ESTIMATES,4,MISS,-0.57123,37.03231,29b52673-a45a-488e-8ee4-8b9144f4a537,4122417.89209866,-63590.0861869557
523,68,ONTOLILI DISP,1157,EASTERN,CENTRAL MERU,FOREST,MT KENYA FOREST,MT KENYA FOREST2,DSA/DFH(MOH)-UNFPA REPORT,4,MOH,-4E-05,37.1877,e50c3751-367c-473e-80dd-90c82eb0de2f,4139715.82777303,-4.45277962738519
524,69,RIIJI MISSION DISP,3019,EASTERN,CENTRAL MERU,ABOTHUGUCHI WEST,KATHERI EAST,KINJO NORTH,DSA/DFH(MOH)-UNFPA REPORT,4,MISS,0.003759,37.6227,211858a9-574c-4ea9-a4be-b4444916c52a,4188139.8062681,418.44996619723
525,20,GITUGI DISP,450,CENTRAL,NYERI,OTHAYA,MAHIGA,GITUGI(NYERI),1:50000 MAPS,4,MOH,-0.517025,36.8629,8c74094f-9128-472b-a454-28e74886dc50,4103559.25716337,-57555.7408481212
526,70,RUIRI CATHOLIC DISP,1158,EASTERN,CENTRAL MERU,BUURI,RUIRI,NCOROIBORO,DSA/DFH(MOH)-UNFPA REPORT,4,MISS,0.174723,37.6481,fdf7117d-4d8c-4f3f-b230-8294b8af4585,4190967.32133425,19450.1055356154
527,71,RUIRI RHDC,1186,EASTERN,CENTRAL MERU,BUURI,RUIRI,NCOROIBORO,DSA/DFH(MOH)-UNFPA REPORT,3,MOH,0.162059,37.6436,87b56610-d98d-4691-bbc2-f392af0ecf2e,4190466.38362568,18040.3494128998
528,21,GITUNDUTI CATHOLIC DISP,4371,CENTRAL,NYERI,MATHIRA,MAGUTU,GITUNDUTI,DISTRICT ESTIMATES,4,MISS,-0.39132,37.13234,b8ab8489-fa6e-4158-93dc-65ab88954f22,4133553.18076271,-43561.8818065699
529,41,KARATINA SUB-DISTRICT HOSPITAL,495,CENTRAL,NYERI,MATHIRA,KARATINA,CHERU,GPS,1,MOH,-0.47339,37.12943,854b7591-63b6-4b97-a1ee-c592a84d02b5,4133229.2410445,-52698.1333158649
530,73,TIMAU CATHOLIC DISP,2784,EASTERN,CENTRAL MERU,TIMAU,KIRIMARA,KIAMBOGO(CMERU),DSA/DFH(MOH)-UNFPA REPORT,4,MISS,0.095573,37.2428,dd1ff6a2-3317-4cf2-a84f-f8ee0a5b03d7,4145849.53171573,10639.142627382
531,74,TIMAU HEALTH CENTRE,1177,EASTERN,CENTRAL MERU,TIMAU,NGUSISHI,MARITATI,DSA/DFH(MOH)-UNFPA REPORT,3,MOH,0.110137,37.265,f8747f28-ddd7-4a9b-8065-5e044198c87c,4148320.82441134,12260.4023079903
532,22,GUMBA DISP,451,CENTRAL,NYERI,MUKURWE-INI,RUTUNE,NGAMWA,1:50000 MAPS,4,MOH,-0.619394,37.125226,00b90648-caa9-4482-8686-40472745c01c,4132761.25390521,-68951.9677186075
533,75,TUNTU DISP (MERU GK PRISON DISP),3432,EASTERN,CENTRAL MERU,MIRIGA MIERU WEST,NTIMA,TUNTU,1:50000 MAPS,4,MOH,0.052321,37.641232,8a004557-24d4-4f22-adbc-5babbadb9dea,4190202.77907148,5824.34788727623
534,42,KAREMENO DISP,3146,CENTRAL,NYERI,KIENI WEST,MUGUNDA,KAREMENO,1:50000 MAPS,4,MOH,-0.12324,36.781123,c1d9c506-7d87-4a32-b4f1-bd5bf811eaac,4094455.88316477,-13719.0246240086
535,23,HOMBE DISP,452,CENTRAL,NYERI,MATHIRA,RUGURU,SAGANA(NYERI),1:50000 MAPS,4,MOH,-0.354505,37.08784,8c596cb1-840a-4e0a-b8fa-3ffafe30705c,4128599.46342241,-39463.5678779951
536,78,URUKU GK PRISON DISP,1163,EASTERN,CENTRAL MERU,NKUENE,NKUENE,URUKU(CMERU),DSA/DFH(MOH)-UNFPA REPORT,4,MOH,-0.037399,37.5638,84c6934c-ac1c-405a-a18f-6c56c3f0ddeb,4181583.08826038,-4163.23793180582
537,43,KARIKO DISP,462,CENTRAL,NYERI,OTHAYA,CHINGA,GIKIGIE,1:50000 MAPS,4,MISS,-0.578853,36.8875,35901221-c870-465d-9b1f-b46f4ced3ff9,4106297.71663688,-64438.7174062843
538,76,URUKU H C,1162,EASTERN,CENTRAL MERU,NKUENE,NKUENE,URUKU(CMERU),DSA/DFH(MOH)-UNFPA REPORT,3,MOH,-0.030434,37.6088,26ce639b-d088-4055-a2c3-8d204c2b2b2e,4186592.46534607,-3387.89754211181
539,44,KARIMA DISP,463,CENTRAL,NYERI,OTHAYA,KARIMA,GURA,DISTRICT ESTIMATES,4,MISS,-0.52123,36.98231,da4c8429-7e24-4d12-b3ba-231896408800,4116851.91755899,-58023.8585213271
540,24,HOMEBASED DISP,0,CENTRAL,NYERI,MATHIRA,KARATINA,CHERU,GPS,4,MOH,-0.47851,37.12657,468d2360-4f29-4830-9b12-ca8f52acc975,4132910.86730083,-53268.1087742409
541,45,KIAGUTHU DISP,3152,CENTRAL,NYERI,OTHAYA,CHINGA,KIAGUTHU(CHINGA),1:50000 MAPS,4,MOH,-0.590991,36.946396,bed4b8a5-1a78-4f21-be5b-32a65c4e0f6e,4112853.98936664,-65789.9838018788
542,79,YURURU DISP,3445,EASTERN,CENTRAL MERU,ABOGETA,KANYAKINE,KANYAKINE,DSA/DFH(MOH)-UNFPA REPORT,4,MISS,-0.130479,37.6557,16ad3b49-6201-4dea-94b3-f5453ac75155,4191813.34946427,-14524.8683936469
543,46,KIAMUYA DISP,4373,CENTRAL,NYERI,OTHAYA,CHINGA,KAGONGO(NYERI),1:50000 MAPS,4,MOH,-0.576577,36.935586,f9602758-c43c-40cc-a29a-c4b2580a0b4e,4111650.62567117,-64185.3413652813
544,30,CONSOLATA HOSPITAL KYENI,4261,EASTERN,EMBU,KYENI,KYENI SOUTH,KATHANJURI,HD MAPS,1,MISS,-0.417376,37.5968,b13e49fd-0873-496b-b16e-ef53f397db0a,4185256.63145655,-46462.4947146204
545,47,KIANDONGORO DISP,464,CENTRAL,NYERI,TETU,TETU,KIRURUMI,1:50000 MAPS,4,MOH,-0.451351,36.83784,26dcf1c4-6acc-414f-9a1d-b9b7ce43d71f,4100769.59072409,-50244.6831554555
546,2,EMBU CHILDREN CLINIC,0,EASTERN,EMBU,CENTRAL,MUNICIPALITY,NJUKIRI,ILRI MKT CENTRES,4,MISS,-0.522311,37.451526,13e9f358-85c1-4739-980c-16f408d7b2b1,4169084.80375105,-58144.1998808202
547,25,ICHAMARA DISP,453,CENTRAL,NYERI,MUKURWE-INI,GITHI,ICHAMARA,GPS,4,MOH,-0.54258,37.07877,ab2839a9-24c4-4e16-9807-3758398dba73,4127589.79564092,-60400.6320818166
548,3,EMBU PGH,840,EASTERN,EMBU,CENTRAL,MUNICIPALITY,NJUKIRI,1:50000 MAPS,2,MOH,-0.522973,37.453604,b5e3c1a2-780d-4f13-98b7-cfd435e226b0,4169316.12565292,-58217.8964497685
549,48,KIGANJO MARKET DISP,466,CENTRAL,NYERI,MUNICIPALITY,KIGANJO,KIGANJO(NYERI),1:50000 MAPS,4,MOH,-0.37923,37.00315,99e8e872-2c55-49b3-bbb3-6ab82847dc75,4119171.81574713,-42215.9987324735
550,4,ENA DISP,799,EASTERN,EMBU,RUNYENJES,KAGAARI SOUTH,KAWANJARA,DHMT,4,MOH,-0.47,37.55,f8d2eefb-a166-4251-84a0-f747e1cef1c2,4180046.87928743,-52320.7474532048
551,49,KIHUYO DISP,4374,CENTRAL,NYERI,MUNICIPALITY,MUKARO,KIHUYO,1:50000 MAPS,4,MOH,-0.381122,36.911123,fccfdd5a-cf4d-41f8-9bef-7a248fb24242,4108927.41696789,-42426.6198456083
552,5,GAIKAMA DISP,4319,EASTERN,EMBU,RUNYENJES,KAGAARI NORTH,KIANJOKOMA,DSA/DFH(MOH)-UNFPA REPORT,4,MISS,-0.385563,37.5076,4a9b0391-52dc-4ca6-b053-6a89790424d5,4175326.93287779,-42921.0007695315
553,26,IHURIRIO DISP,454,CENTRAL,NYERI,OTHAYA,IRIA-INI,IHURIRIO,1:50000 MAPS,4,MOH,-0.554411,36.883322,b103faf2-145f-4c17-8eda-248baf39777e,4105832.62380435,-61717.7133301327
554,50,KINUNGA HEALTH CENTRE,491,CENTRAL,NYERI,TETU,TETU,KIGOGOINI,1:50000 MAPS,3,MOH,-0.441123,36.89,af238d14-0865-424b-9ef1-5f5b996fa40e,4106576.01536387,-49106.072869549
555,6,GATUMBI DISP,802,EASTERN,EMBU,KYENI,KYENI NORTH,KIANGUNGI,1:50000 MAPS,4,MOH,-0.381235,37.572321,5fc12392-6510-4657-bb7a-1c80368bab65,4182531.64164142,-42439.1992264489
556,51,KIRURUMI DISP,3148,CENTRAL,NYERI,TETU,TETU,KIRURUMI,1:50000 MAPS,4,MOH,-0.435484,36.8544,e8882ffd-d12e-471a-ac07-1c155c35eb0a,4102613.04149163,-48478.323892858
557,27,IHURURU DISP,455,CENTRAL,NYERI,TETU,MAHOYA,IHURURU,1:50000 MAPS,4,MOH,-0.412186,36.8907,e48001a8-1af6-436b-8586-c6416252e947,4106653.93900742,-45884.731417746
558,7,GATUNDURI DISP,2783,EASTERN,EMBU,CENTRAL,MBETI NORTH,KIANGIMA,1:50000 MAPS,4,MOH,-0.482321,37.471234,b15935a3-46e9-4b21-b6d0-74eddf92d558,4171278.6882756,-53692.3622673024
